Seconds,R_Time,Depth,Lat,Long,Resp_Num,Sleep_Num,Stroke_Rate,Heart_Rate,heading,pitch,roll
407513,2021-04-25 11:14:03,0.628334816137763,37.1167641521045,-122.331034578901,2,1,73.89827,92.10997,-2.67057553415235,-0.0064650044815139,0.0323720965341388
407514,2021-04-25 11:14:04,0.607280483047144,37.1167647789233,-122.33103572713,2,1,80.86462,89.67945,-2.72263426871813,-0.0396918190729633,0.0696203105497636
407515,2021-04-25 11:14:05,0.628941176593337,37.1167654054997,-122.33103687511,2,1,63.41832,91.01832,-2.8487895263841,0.124310841816426,0.151009342831493
407516,2021-04-25 11:14:06,0.62161331286201,37.116766034163,-122.331038024125,2,1,47.07086,93.17051,-2.77875985415504,-0.462153207898878,0.204127017994969
407517,2021-04-25 11:14:07,0.69143371626501,37.1167666629426,-122.331039173074,2,1,63.15414,106.138,-2.53041487283739,-0.318193153401927,0.0064702495833984
407518,2021-04-25 11:14:08,0.601311197229196,37.1167672916402,-122.331040322007,2,1,72.63838,75.64364,-2.44308179693862,-0.0655498697654881,-0.0041114855933343
407519,2021-04-25 11:14:09,0.641281990185977,37.1167679197302,-122.331041470705,2,1,82.9468,84.79737,-2.72701367933333,-0.0825352852482737,0.157000042522616
407520,2021-04-25 11:14:10,0.594972864190965,37.1167685470287,-122.331042618938,2,1,75.21668,86.82047,-2.84269270910496,-0.0596469213358154,0.175619344586953
407521,2021-04-25 11:14:11,0.615255498342409,37.1167691743211,-122.331043767279,2,1,110.1966,85.70728,-2.66196596555081,-0.0313236102067087,-0.0266398389724043
407522,2021-04-25 11:14:12,0.603306768199608,37.1167698021989,-122.331044915905,2,1,104.3073,79.62779,-2.70824115280082,-0.184301495266688,0.0007180848646509
407523,2021-04-25 11:14:13,0.620379804993832,37.1167704304519,-122.331046064634,2,1,73.17207,74.06172,2.80406910258226,0.393337779199763,0.0995926414196644
407524,2021-04-25 11:14:14,0.585841686807952,37.1167710526272,-122.331047205362,2,1,55.93327,130.3135,2.88588322370444,-0.222696284767939,0.154255546175871
407525,2021-04-25 11:14:15,0.612882879717556,37.1167716735797,-122.331048340422,2,1,83.73624,146.0215,2.3699109064412,0.0434473007232507,0.187899191876519
407526,2021-04-25 11:14:16,0.626604291532163,37.1167722944937,-122.331049474494,2,1,101.2499,82.08103,2.4349013731412,0.057420825609109,0.19919022745258
407527,2021-04-25 11:14:17,0.611520409983553,37.1167729154502,-122.331050608749,2,1,75.69897,84.44906,2.51322043672682,0.0137453150046021,0.0633108837008663
407528,2021-04-25 11:14:18,0.686728753710005,37.1167735364092,-122.331051742786,2,1,36.98338,85.34155,2.4875323079217,0.0077062082794387,0.0508833729469525
407529,2021-04-25 11:14:19,0.626293181933251,37.1167741573765,-122.331052876859,2,1,36.86419,87.51737,2.4263766282687,0.0727068785946764,0.0581327686649718
407530,2021-04-25 11:14:20,0.604637086870998,37.116774778397,-122.33105401045,2,1,36.6258,89.5939,2.48330393356315,0.129357964900769,0.0130052913097064
407531,2021-04-25 11:14:21,0.607848479857026,37.1167753994273,-122.331055144394,2,1,42.02914,89.12253,2.54764754925776,0.055256500861824,-0.0561187381454215
407532,2021-04-25 11:14:22,0.646057761704907,37.116776020463,-122.331056279908,2,1,62.28809,88.53196,2.50473771749513,0.146381060261726,0.0441354765367607
407533,2021-04-25 11:14:23,0.636994580234692,37.1167766417244,-122.331057417664,2,1,71.21685,87.16877,2.17498402074382,0.45336488224228,-0.116876935129438
407534,2021-04-25 11:14:24,0.619999847005419,37.1167772631464,-122.331058556167,2,1,73.7086,151.564,-3.14052854190938,-0.290324538811319,-0.12620830836766
407535,2021-04-25 11:14:25,0.650800700259997,37.1167778851247,-122.331059696668,2,1,67.82317,146.4915,2.81989303130413,0.0527553339341883,0.0036070688957445
407536,2021-04-25 11:14:26,0.595345160561312,37.1167785070539,-122.331060836815,2,1,82.73542,100.9617,2.90201253630673,-0.36814018477885,0.167918322331
407537,2021-04-25 11:14:27,0.64134594426495,37.1167791296204,-122.331061978538,2,1,92.44806,111.7139,-3.10742903030501,-0.434377457459741,0.232877765102179
407538,2021-04-25 11:14:28,0.655009888616925,37.1167797536747,-122.331063122921,2,1,65.70565,98.34228,-2.90191429987127,-0.54971254891875,0.0291973502140568
407539,2021-04-25 11:14:29,0.607237545299063,37.1167803773013,-122.331064266441,2,1,62.96843,193.3764,-2.71323330284221,0.0560382268517377,-0.205203343521537
407540,2021-04-25 11:14:30,0.600526697850302,37.1167809998748,-122.331065407621,2,1,63.39971,201.1261,-2.64055782843541,0.300900415698274,-0.118154854373903
407541,2021-04-25 11:14:31,0.614115391831807,37.1167816218911,-122.331066546845,2,1,65.50677,111.8607,2.05704115104543,0.370240222208359,0.019692643572304
407542,2021-04-25 11:14:32,0.634732507214964,37.1167822453743,-122.33106768946,2,1,87.10706,123.5952,-2.02220806368911,0.291908809395507,-0.1667844203564
407543,2021-04-25 11:14:33,0.61877039250609,37.1167828746297,-122.331068837726,2,1,62.12059,89.98412,-1.51992702838845,0.37986424692216,-0.28943848943596
407544,2021-04-25 11:14:34,0.650545299304227,37.1167835085515,-122.331069986876,2,1,61.38549,102.3615,-1.66055323338742,0.289541590569134,0.143842352301082
407545,2021-04-25 11:14:35,0.603826837092721,37.1167841423244,-122.331071135989,2,1,79.12679,88.81527,-2.36845939303769,-0.189181000290196,0.145663592322116
407546,2021-04-25 11:14:36,0.654338244179505,37.1167847740413,-122.331072285053,2,1,107.3433,97.14712,-2.61880871451927,-0.0982441305295817,0.247995265356487
407547,2021-04-25 11:14:37,0.617770946992013,37.1167854011876,-122.331073432133,2,1,86.28703,172.9768,-1.7281767600681,0.470792648711839,-0.283311426287655
407548,2021-04-25 11:14:38,0.68763684135543,37.1167860254098,-122.331074576261,2,1,70.6418,132.3203,-2.3594263355727,0.181944421859644,-0.229476568783331
407549,2021-04-25 11:14:39,0.629543518453948,37.1167866479583,-122.331075716899,2,1,87.70303,99.69896,2.83051472373523,0.23929978687884,-0.0335574281330824
407550,2021-04-25 11:14:40,0.613261693110455,37.1167872698485,-122.331076853785,2,1,117.0819,95.37614,0.734472472206404,0.36259781016235,-0.185521728457687
407551,2021-04-25 11:14:41,0.608895761458189,37.1167878914198,-122.331077988644,2,1,95.11862,98.93458,1.61513659815129,0.554902080150467,0.0588679213109914
407552,2021-04-25 11:14:42,0.597724591353843,37.1167885130419,-122.331079121998,2,1,98.09731,99.1036,2.85409455234633,0.0175410591397005,-0.0316455582077974
407553,2021-04-25 11:14:43,0.689632010200502,37.1167891348454,-122.331080258948,2,1,94.73379,97.91041,2.79189075565704,-0.245952409137246,0.31936897763577
407554,2021-04-25 11:14:44,0.627093029379028,37.1167897591899,-122.331081402766,2,1,111.1807,103.353,2.72250862633761,0.162600629273841,0.354562936169145
407555,2021-04-25 11:14:45,0.611982706339508,37.1167903873627,-122.331082550368,2,1,101.9943,121.1258,-2.49169074492173,0.141922481492233,0.0213312868094942
407556,2021-04-25 11:14:46,0.65533211651027,37.1167910179146,-122.331083698806,2,1,62.25672,120.0391,-2.33007114386625,0.017226527871953,0.174587184117228
407557,2021-04-25 11:14:47,0.591370656783238,37.1167916508548,-122.331084847546,2,1,80.2359,88.76401,-1.88357818188942,0.0300150736829843,-0.0674461458980464
407558,2021-04-25 11:14:48,0.610939383975178,37.1167922854314,-122.331085996114,2,1,107.0967,89.28063,-2.26638310856979,-0.336260622221585,0.052256247205257
407559,2021-04-25 11:14:49,0.69480657366817,37.1167929216351,-122.331087144272,2,1,59.33713,112.2548,-1.77989538499373,-0.0544281734407902,-0.172541554188019
407560,2021-04-25 11:14:50,0.610952407998021,37.1167935578872,-122.331088292383,2,1,54.18824,86.64302,-1.88858964341454,-0.0334301598578122,-0.0762378391525871
407561,2021-04-25 11:14:51,0.593474582221116,37.1167941924557,-122.331089440977,2,1,40.62874,98.80006,-2.17979642994883,-0.0703530362885879,0.0811851410220175
407562,2021-04-25 11:14:52,0.6355375088885,37.1167948250912,-122.331090589692,2,1,54.56784,105.0844,-2.31710730270541,-0.0719694368214941,-0.125904995965201
407563,2021-04-25 11:14:53,0.703092265933446,37.1167954563434,-122.331091738285,2,1,71.97425,102.7046,-2.27283341431516,0.0007112712605377,-0.100380120716113
407564,2021-04-25 11:14:54,0.648392818968527,37.1167960880268,-122.33109288688,2,1,101.1842,103.0649,-2.24048983492029,-0.122436010329181,-0.0812204398561223
407565,2021-04-25 11:14:55,0.584703639268906,37.1167967205257,-122.331094035495,2,1,92.42943,103.5983,-2.18847817063747,-0.0597255340801487,-0.0324042468566031
407566,2021-04-25 11:14:56,0.650624240731947,37.116797353003,-122.331095184071,2,1,57.05917,122.0542,-2.2605512886658,-0.0692637089368618,-0.104953859682391
407567,2021-04-25 11:14:57,0.67262005671842,37.1167979846373,-122.331096332582,2,1,53.01137,95.57475,-2.30277399239731,-0.0159792104769348,-0.103525108706962
407568,2021-04-25 11:14:58,0.638505818976775,37.1167986162137,-122.331097481067,2,1,33.31236,105.1265,-2.21633176162434,-0.0036751747843034,-0.127623496306899
407569,2021-04-25 11:14:59,0.655882141077553,37.1167992482817,-122.331098629579,2,1,28.19625,106.2777,-2.21435778918465,-0.0327397599138884,-0.09051834525435
407570,2021-04-25 11:15:00,0.642916523334091,37.1167998801903,-122.331099778037,2,1,43.07075,106.5021,-2.25733862770083,-0.0526558491940733,-0.103525823374343
407571,2021-04-25 11:15:01,0.64702473953993,37.116798982564,-122.331099524123,2,1,63.6178,107.3811,-2.28209839871344,-0.0210933642821846,-0.131444940051881
407572,2021-04-25 11:15:02,0.583928947442873,37.1167977025595,-122.331098919594,2,1,45.2139,107.6726,-2.30101118608954,-0.0043098663525209,-0.0704181464743864
407573,2021-04-25 11:15:03,0.606664503686374,37.1167964226227,-122.331098315042,2,1,43.23242,107.3536,-2.33930703182549,-0.0167147166721603,-0.054967236918556
407574,2021-04-25 11:15:04,0.633088103187809,37.1167951424341,-122.331097710416,2,1,33.70553,108.325,-2.34438250102915,-0.0324565295533355,-0.069546780168853
407575,2021-04-25 11:15:05,0.691204998012959,37.1167938623784,-122.331097105779,2,1,22.57764,109.0761,-2.28722515954848,-0.0550359453523157,-0.139798335049685
407576,2021-04-25 11:15:06,0.643432267631381,37.1167925823809,-122.331096501094,2,1,22.57764,107.4312,-2.0388180320666,0.0327813246886908,-0.342125431929997
407577,2021-04-25 11:15:07,0.613137876007808,37.1167913002396,-122.331095895701,2,1,26.98029,96.6776,-2.74339034772265,-0.378383933297861,0.153334127424582
407578,2021-04-25 11:15:08,0.600957361849381,37.1167900179856,-122.331095290123,2,1,50.70703,84.88727,-2.53219868847712,-0.26124997748793,0.217469572747106
407579,2021-04-25 11:15:09,0.61332372082012,37.1167887373831,-122.331094685063,2,1,91.51254,121.478,-2.17713235652261,0.178478236788949,0.148981095092645
407580,2021-04-25 11:15:10,0.640248085315786,37.116787457309,-122.331094080194,2,1,95.66006,114.9553,-2.26047791223022,0.0326445627683461,0.091905233145176
407581,2021-04-25 11:15:11,0.614899241942161,37.1167861773565,-122.331093475348,2,1,75.08551,95.66747,-2.25836047656211,0.0320913320661853,0.0887065205119001
407582,2021-04-25 11:15:12,0.603037475443438,37.1167848973701,-122.331092870463,2,1,36.92657,101.5875,-2.25704814490112,0.0424905564127966,0.0936918153534334
407583,2021-04-25 11:15:13,0.656135436087021,37.1167836173653,-122.331092265551,2,1,30.505,100.2522,-2.26105723697341,0.0397685043075977,0.100559410615099
407584,2021-04-25 11:15:14,0.628880730520789,37.1167823372097,-122.331091660589,2,1,17.66187,97.9833,-2.27572791574197,0.0493607916647979,0.0848821887479157
407585,2021-04-25 11:15:15,0.625330856059294,37.1167810570318,-122.331091055597,2,1,17.66187,97.52288,-2.28992145282907,0.0741911343151406,0.120948576615365
407586,2021-04-25 11:15:16,0.623660279022532,37.1167797768591,-122.331090450583,2,1,36.04554,99.52596,-2.29187374432565,0.0567333028485924,0.0949812471209927
407587,2021-04-25 11:15:17,0.625384639584537,37.1167784968345,-122.331089845551,2,1,55.76719,102.1277,-2.24564164801788,0.040601547266694,0.0798348510724329
407588,2021-04-25 11:15:18,0.624613964218425,37.116777216816,-122.331089240465,2,1,21.6758,102.3762,-2.27452302069682,0.0084662904833326,0.13043948605788
407589,2021-04-25 11:15:19,0.658387649304559,37.1167759366873,-122.331088635295,2,1,21.6758,101.9423,-2.34827882978646,-0.0012438846309789,0.179455385807199
407590,2021-04-25 11:15:20,0.640283472455875,37.116774656269,-122.33108803003,2,1,31.99179,102.8109,-2.39365504815947,0.0010590038817461,0.14589088884376
407591,2021-04-25 11:15:21,0.62815379443371,37.1167733755836,-122.331087424697,2,1,56.73312,102.4345,-2.2883631954259,0.0442544896285731,0.0803974316448405
407592,2021-04-25 11:15:22,0.65544573131016,37.1167720950373,-122.33108681936,2,1,56.81926,103.9098,-2.37188102067701,0.0036079124430385,0.134838057956423
407593,2021-04-25 11:15:23,0.626789220927372,37.1167708141564,-122.331086213914,2,1,41.73489,105.7461,-2.40704395671726,0.0025508906413283,0.0906573428500372
407594,2021-04-25 11:15:24,0.592244854539318,37.1167695331893,-122.331085608426,2,1,44.09633,104.2397,-2.37263488235211,0.0035144513466274,0.0829151527291384
407595,2021-04-25 11:15:25,0.631416834536049,37.1167682523679,-122.331085002948,2,1,39.4963,103.5781,-2.32700513792172,0.0171019102299232,0.0872924013837746
407596,2021-04-25 11:15:26,0.614238122355039,37.1167669715987,-122.331084397433,2,1,30.29622,102.0221,-2.34308657124048,0.0172108519176268,0.077948818907669
407597,2021-04-25 11:15:27,0.602796092277118,37.1167656907992,-122.331083791896,2,1,32.23869,98.6632,-2.36552486399942,0.0114236864105523,0.0878864413490437
407598,2021-04-25 11:15:28,0.638464162433357,37.1167644099982,-122.331083186327,2,1,21.79199,95.75697,-2.35334976221252,0.0154206259730513,0.088917668588432
407599,2021-04-25 11:15:29,0.603010305705171,37.1167631292075,-122.331082580728,2,1,12.23756,91.71867,-2.37657825707095,0.0039971775110127,0.0944474136724993
407600,2021-04-25 11:15:30,0.621753419218109,37.1167618484284,-122.331081975097,2,1,12.23756,85.92475,-2.3664524051499,0.0072273371192985,0.104378807391218
407601,2021-04-25 11:15:31,0.639858826464877,37.1167605675669,-122.331081369397,2,1,12.23756,81.35699,-2.34320900793134,0.0223717240140406,0.0777367962680061
407602,2021-04-25 11:15:32,0.64393650698762,37.1167592866706,-122.331080763678,2,1,12.23756,83.6105,-2.39310384018826,0.0096378065579699,0.0865858024725588
407603,2021-04-25 11:15:33,0.633069758071835,37.1167580057249,-122.331080157913,2,1,14.62784,92.43944,-2.39414606659146,0.0221866650983169,0.0853684290351315
407604,2021-04-25 11:15:34,0.695858294288303,37.1167567248098,-122.331079552134,2,1,17.01813,93.99093,-2.33886083779421,0.0233188192272376,0.090979092085039
407605,2021-04-25 11:15:35,0.61468432281754,37.1167554444921,-122.331078946472,2,1,17.01813,94.3581,-2.29152057443303,0.0549746099458173,0.147540225040217
407606,2021-04-25 11:15:36,0.624448790942473,37.1167541644081,-122.331078340809,2,1,17.01813,96.57698,-2.39045085113434,0.0492330852629022,0.185291060407255
407607,2021-04-25 11:15:37,0.632550112943087,37.1167528839134,-122.331077735057,2,1,27.93661,96.55777,-2.37698690340206,0.0581646790415007,0.136279304239845
407608,2021-04-25 11:15:38,0.615876195869811,37.1167516033764,-122.331077129272,2,1,51.8499,99.97881,-2.33760079622211,0.0603194457499138,0.098355342897788
407609,2021-04-25 11:15:39,0.607150033168014,37.1167503232459,-122.331076523536,2,1,44.54774,99.47563,-2.26224631284877,0.0126576470773037,0.0666528762915419
407610,2021-04-25 11:15:40,0.625365886082892,37.1167490438417,-122.33107591786,2,1,21.63815,98.49716,-2.21780104898679,0.0892909992587759,0.15586361242331
407611,2021-04-25 11:15:41,0.6079976041654,37.1167477642689,-122.331075312108,2,1,21.63815,98.06842,-2.14674056882383,0.0667667393732214,0.128633101180632
407612,2021-04-25 11:15:42,0.607858831603397,37.1167464843634,-122.331074706316,2,1,32.29841,96.33443,-2.72107367618063,-0.216314761368598,0.304029376532721
407613,2021-04-25 11:15:43,0.659870091875966,37.1167452037353,-122.331074100359,2,1,58.10208,92.50811,-1.28766677223365,0.579964366194876,0.0307202586246426
407614,2021-04-25 11:15:44,0.625486007014829,37.1167439239239,-122.331073494469,2,1,67.62045,88.68884,-1.40723853506221,0.413343669168701,-0.0377301201174764
407615,2021-04-25 11:15:45,0.61615429773098,37.1167426471424,-122.331072888379,2,1,90.0566,94.53439,-2.27667080703721,-0.125378112306512,0.237927971944301
407616,2021-04-25 11:15:46,0.634892875825448,37.1167413724295,-122.331072281422,2,1,115.0716,60.47285,-2.21732971235994,-0.429665408848453,0.196515283764171
407617,2021-04-25 11:15:47,0.658808925156289,37.1167400988556,-122.331071673742,2,1,112.6436,62.96892,-1.57182373121038,-0.0562093601168166,-0.112003777818344
407618,2021-04-25 11:15:48,0.604399383175979,37.1167388256229,-122.331071065762,2,1,111.1884,91.3495,-1.5432436210907,-0.0681225411344749,-0.103559396320831
407619,2021-04-25 11:15:49,0.637191366354194,37.1167375522489,-122.331070457858,2,1,97.4442,91.01389,-1.58699369690662,-0.0843424920651187,-0.18403811684489
407620,2021-04-25 11:15:50,0.601257437096673,37.1167362786397,-122.33106985012,2,1,51.06046,93.13418,-1.67153471959818,-0.0523571927782034,-0.0795827760089201
407621,2021-04-25 11:15:51,0.645515291422973,37.1167350046324,-122.331069242622,2,1,37.18869,95.92561,-1.62533846952544,0.177390388238406,-0.154089451340008
407622,2021-04-25 11:15:52,0.635516907455333,37.1167337295084,-122.331068635726,2,1,27.90234,92.54074,-1.81961780027456,0.0024278973591784,-0.0036408930023342
407623,2021-04-25 11:15:53,0.671349998221026,37.1167324543203,-122.331068028857,2,1,58.54708,93.2776,-1.73202450033607,-0.0264064265055899,-0.0688857027529127
407624,2021-04-25 11:15:54,0.616447075650618,37.1167311794297,-122.331067421812,2,1,116.4138,95.46754,-1.77476513844004,-0.0413422573204615,-0.0805576383845593
407625,2021-04-25 11:15:55,0.588178960461467,37.1167299042283,-122.331066814894,2,1,85.08082,97.06137,-1.76807387718328,-0.0448361089105112,-0.0828351618791705
407626,2021-04-25 11:15:56,0.683539756558906,37.1167286290923,-122.33106620791,2,1,19.06021,95.75965,-1.76694542177705,-0.0613180587622154,-0.0758974012630268
407627,2021-04-25 11:15:57,0.653815057876718,37.1167273541105,-122.331065600799,2,1,19.06021,92.52886,-1.74451705345622,-0.065051765127766,-0.066342182213208
407628,2021-04-25 11:15:58,0.645172443485251,37.116726078981,-122.331064993736,2,1,21.95103,91.3967,-1.77561273187686,-0.0492160469760878,-0.100214787736882
407629,2021-04-25 11:15:59,0.623568965969287,37.1167248039122,-122.331064386623,2,1,27.73266,95.1243,-1.71915955487956,-0.068191300773354,-0.131231842133819
407630,2021-04-25 11:16:00,0.628603322295051,37.1167235292709,-122.331063779246,2,1,50.22589,95.57807,-1.71296923921625,-0.0203308052343169,-0.125662911921653
407631,2021-04-25 11:16:01,0.65398352432874,37.1167222546157,-122.33106317184,2,1,81.54138,90.9731,-1.76083205328269,-0.0732469062166474,-0.0661753770322097
407632,2021-04-25 11:16:02,0.595383965275218,37.1167209799989,-122.331062564359,2,1,43.2593,90.15719,-1.714908405846,-0.0786262553921515,-0.0878187330537251
407633,2021-04-25 11:16:03,0.61273161507054,37.1167197052572,-122.331061956922,2,1,21.37899,90.11082,-1.73056708833489,-0.0605317658842297,-0.0985219990653588
407634,2021-04-25 11:16:04,0.654033031665686,37.1167184304338,-122.331061349499,2,1,21.37899,92.54072,-1.71468271665636,-0.0626666972263382,-0.104874392969766
407635,2021-04-25 11:16:05,0.647073485922779,37.1167171558392,-122.331060741898,2,1,25.64296,94.00038,-1.69440816650278,-0.0801911797286194,-0.0900761263629712
407636,2021-04-25 11:16:06,0.582374056677922,37.1167158812106,-122.331060134276,2,1,32.63135,91.94844,-1.71236453358099,-0.0398228012385739,-0.0880796727759977
407637,2021-04-25 11:16:07,0.651139019292867,37.1167146065241,-122.331059526668,2,1,29.55223,91.48811,-1.69812474160649,-0.0696765623182499,-0.101939920357024
407638,2021-04-25 11:16:08,0.630992690206365,37.1167133319641,-122.331058918943,2,1,32.57461,91.90109,-1.67313312087718,-0.064319210706193,-0.103065187832854
407639,2021-04-25 11:16:09,0.679640993355679,37.1167120573363,-122.331058311202,2,1,38.61937,90.51317,-1.69737800709205,-0.09158524657901,-0.0702382590085943
407640,2021-04-25 11:16:10,0.615676818946775,37.1167107826477,-122.331057703453,2,1,33.02649,88.52177,-1.70225491156573,-0.087417914826916,-0.0518428505854993
407641,2021-04-25 11:16:11,0.636196764287205,37.1167095079661,-122.331057095688,2,1,21.84074,87.82702,-1.71059212903036,-0.0614840591418881,-0.0749152914049146
407642,2021-04-25 11:16:12,0.6335739122665,37.1167082331134,-122.331056487998,2,1,21.84074,92.05237,-1.73694311203167,-0.0616030784036569,-0.082914611535682
407643,2021-04-25 11:16:13,0.661813825130381,37.1167069582496,-122.331055880285,2,1,25.91318,92.11256,-1.71044901329602,-0.0793221357370913,-0.109160544552697
407644,2021-04-25 11:16:14,0.628684948353439,37.1167056833849,-122.331055272523,2,1,29.46873,89.54221,-1.74318548740001,-0.0840491559529919,-0.0864525593213254
407645,2021-04-25 11:16:15,0.626991118458659,37.1167044084319,-122.331054664778,2,1,20.29007,87.93507,-1.7144167395523,-0.0469447081274913,-0.080084951004304
407646,2021-04-25 11:16:16,0.631723824481751,37.1167031334698,-122.331054057021,2,1,20.29007,88.42545,-1.77930816821426,-0.0788862414612472,-0.0900969990112157
407647,2021-04-25 11:16:17,0.656553097267182,37.116701858219,-122.331053449403,2,1,37.10409,90.59031,-1.88698594752857,-0.034306974509191,-0.0640917278016145
407648,2021-04-25 11:16:18,0.66310442329411,37.1167005819014,-122.33105284221,2,1,84.58852,90.64972,-1.95274567573834,-0.0471393403976516,-0.110542784777719
407649,2021-04-25 11:16:19,0.63763140427695,37.1166993050458,-122.331052235137,2,1,91.0268,90.4175,-1.92252648353763,-0.0295116720495275,-0.0584757000017459
407650,2021-04-25 11:16:20,0.621265215908236,37.1166980282881,-122.331051628001,2,1,41.26726,92.63818,-1.92013998639959,-0.0093739887199298,-0.0314544519882147
407651,2021-04-25 11:16:21,0.643040093546972,37.1166967515995,-122.331051020809,2,1,26.84623,151.9425,-1.93014708713049,-0.0242819496675792,-0.0084926970236071
407652,2021-04-25 11:16:22,0.660939143674856,37.1166954749636,-122.331050413582,2,1,49.96817,94.32482,-1.91571927103562,-0.0340418130082585,-0.0402289384810152
407653,2021-04-25 11:16:23,0.659104360236501,37.1166941984542,-122.33104980628,2,1,96.44874,97.93028,-1.92252575035665,-0.0547773797468227,-0.0676277836111293
407654,2021-04-25 11:16:24,0.678560803400284,37.1166929219583,-122.331049198948,2,1,72.30283,97.66559,-1.96184294790356,0.0006377656772163,0.0028048002243262
407655,2021-04-25 11:16:25,0.595736420734767,37.1166916452678,-122.331048591647,2,1,23.06433,94.97309,-2.06985569273308,-0.22754749075955,-0.0233203023646058
407656,2021-04-25 11:16:26,0.623197976794703,37.1166903682427,-122.331047984403,2,1,54.45596,95.31749,-1.86889297601161,0.0333466346031183,-0.0336183284382706
407657,2021-04-25 11:16:27,0.609534983944018,37.1166890910065,-122.331047377156,2,1,95.4177,97.51323,-2.02682259316485,-0.0440498259712139,-0.0153760129513224
407658,2021-04-25 11:16:28,0.648989681505725,37.116687813751,-122.331046769895,2,1,46.57708,98.13033,-1.97913405575139,-0.0063060410258466,-0.0660619996758331
407659,2021-04-25 11:16:29,0.61319004102217,37.1166865363759,-122.331046162634,2,1,32.83809,97.77312,-2.03657842128786,-0.0439041764276533,-0.0466533130305242
407660,2021-04-25 11:16:30,0.658265707580952,37.1166852586975,-122.331045555397,2,1,26.15028,97.66556,-2.00120489500799,0.0057899535213519,-0.0765234837906189
407661,2021-04-25 11:16:31,0.618442433574664,37.1166839806816,-122.331044948175,2,1,26.15028,98.22543,-2.12163775207825,-0.107763494719645,-0.167633214372388
407662,2021-04-25 11:16:32,0.643322539772047,37.1166827027523,-122.331044340907,2,1,26.34107,98.12877,-1.99132451990947,-0.0428321331746737,-0.223230583223464
407663,2021-04-25 11:16:33,0.65195781086624,37.1166814249834,-122.331043733593,2,1,26.72263,135.4223,-2.09123315090347,-0.101603915341489,-0.191167650529887
407664,2021-04-25 11:16:34,0.607956028173961,37.116680147319,-122.331043126231,2,1,31.76191,85.53893,-1.94614200407568,0.12118768785625,-0.104721256393086
407665,2021-04-25 11:16:35,0.633398719203722,37.1166788683587,-122.331042518879,2,1,58.08651,90.25484,-2.56468632533819,-0.797047179615224,-0.0392103553178299
407666,2021-04-25 11:16:36,0.629475672488566,37.1166775881467,-122.331041911338,2,1,98.84324,110.0092,-2.58015524431024,-0.340539823099877,0.124279699660587
407667,2021-04-25 11:16:37,0.579006566410852,37.1166763085495,-122.331041303876,2,1,96.16409,106.0816,-2.40108797162779,-0.27577016522224,0.0535182594287554
407668,2021-04-25 11:16:38,0.641544037554289,37.1166750288932,-122.331040696332,2,1,90.87362,95.4084,-2.59575314350298,-0.255865575263574,0.228236153065112
407669,2021-04-25 11:16:39,0.60057934455924,37.1166737484374,-122.331040088554,2,1,95.53924,70.73697,-2.81846661901259,-0.201756618870189,0.331142283338046
407670,2021-04-25 11:16:40,0.621107073374969,37.1166724654195,-122.331039479357,2,1,83.25328,94.78644,-3.11727182645548,-0.0196203010230929,0.348888543697274
407671,2021-04-25 11:16:41,0.631537364682068,37.1166711818843,-122.331038869776,2,1,77.52598,130.1832,-2.94204897361356,-0.531146949682717,0.138298879368564
407672,2021-04-25 11:16:42,0.607721571953345,37.1166698997957,-122.331038261246,2,1,104.4567,117.7946,-2.87654345619071,-0.697448566798485,0.239310445840365
407673,2021-04-25 11:16:43,0.665296804974947,37.1166686175791,-122.331037652543,2,1,65.77215,131.5322,-2.86984506814759,-0.747322047255507,0.151178280464293
407674,2021-04-25 11:16:44,0.58574351648421,37.116667334461,-122.331037043188,2,1,81.95769,160.2413,-2.99428506620949,-0.508780008940718,0.226336459843611
407675,2021-04-25 11:16:45,0.656621366226272,37.1166660511133,-122.331036433678,2,1,117.3635,102.2174,-2.89982759532404,-0.512899187173479,0.203808851076504
407676,2021-04-25 11:16:46,0.602624010881066,37.1166647680284,-122.331035824383,2,1,103.4903,121.1159,-3.06148905883236,-0.509160974328371,0.277942100648635
407677,2021-04-25 11:16:47,0.614311960735203,37.1166634844855,-122.331035214624,2,1,61.16486,81.65787,-3.01729840423702,-0.67980015429294,0.177932256747877
407678,2021-04-25 11:16:48,0.621306155877945,37.1166622005934,-122.331034604503,2,1,61.64022,107.277,-2.75823466591528,-0.795847162782907,-0.185011784019925
407679,2021-04-25 11:16:49,0.638082154335651,37.1166609173519,-122.33103399488,2,1,62.12648,106.5066,-2.75399305673596,-0.49270451473105,0.102697774255017
407680,2021-04-25 11:16:50,0.622672371547359,37.116659635321,-122.331033386029,2,1,61.24996,141.6268,-2.90042061060773,-0.708534811317741,0.294952486948343
407681,2021-04-25 11:16:51,0.566113513402993,37.1166583544153,-122.331032777562,2,1,61.93722,86.46648,-2.96108891995931,-0.762896319387509,0.376788714649777
407682,2021-04-25 11:16:52,0.609248716049396,37.1166570733397,-122.331032169047,2,1,76.70004,77.31043,-2.66946694124596,-0.396478877318965,0.139240330627434
407683,2021-04-25 11:16:53,0.615187205918955,37.1166557912187,-122.331031559948,2,1,113.1609,89.85366,-1.7646428490284,0.392325232440508,-0.0303140554278523
407684,2021-04-25 11:16:54,0.640507175025218,37.116654508841,-122.331030950612,2,1,113.0631,93.76945,-2.90973494211749,-0.397980103671031,0.31140795480003
407685,2021-04-25 11:16:55,0.669962485422783,37.1166532265998,-122.331030341464,2,1,96.0628,95.17822,-2.70911210784928,-0.0525599079608895,0.12948012151746
407686,2021-04-25 11:16:56,0.67690615332709,37.1166519446124,-122.331029732493,2,1,106.47,94.92439,-2.55396606334379,-0.0662644347762718,0.0702637922931094
407687,2021-04-25 11:16:57,0.701690589181733,37.1166506631759,-122.3310291238,2,1,90.57943,97.06341,-2.31466723468982,0.091765214443031,0.085908482813217
407688,2021-04-25 11:16:58,0.563608139636227,37.1166493820452,-122.331028515151,2,1,48.93191,97.36434,-2.42505443635703,-0.0734502031657856,0.0607696020002011
407689,2021-04-25 11:16:59,0.59825663262332,37.1166481012106,-122.331027906581,2,1,53.42928,162.7265,-2.44039031888815,-0.0764283095691882,0.0936170132107633
407690,2021-04-25 11:17:00,0.648612891702889,37.1166468200106,-122.331027297797,2,1,55.95982,158.4341,-2.53700696806676,-0.0807147287457488,0.152849093028278
407691,2021-04-25 11:17:01,0.644669487256517,37.1166455387,-122.331026688899,2,1,52.46783,100.4936,-2.47629607079306,-0.113634923089959,0.0818677598252822
407692,2021-04-25 11:17:02,0.66393271052317,37.1166442574358,-122.331026080021,2,1,38.97054,102.4192,-2.59041795456045,-0.113728474094441,0.0745090409710708
407693,2021-04-25 11:17:03,0.597034825174163,37.1166429759045,-122.331025470959,2,1,41.23046,100.3727,-2.52542142059298,-0.143073559283685,0.0621570175135182
407694,2021-04-25 11:17:04,0.63543730460683,37.1166416943134,-122.33102486185,2,1,41.94525,100.919,-2.5450732653009,-0.111445715575997,0.0763922030840857
407695,2021-04-25 11:17:05,0.641882553510619,37.1166404128251,-122.331024252766,2,1,34.33514,97.28253,-2.56244612497368,-0.110151886771626,0.132141656108911
407696,2021-04-25 11:17:06,0.60973192302847,37.1166391318997,-122.331023643963,2,1,30.97589,93.10248,-2.39912404869807,-0.0509673883422558,0.0078076844357474
407697,2021-04-25 11:17:07,0.603851772874237,37.116637851213,-122.331023035232,2,1,24.25741,90.5196,-2.47127752807366,-0.112110345347912,0.0431243481452572
407698,2021-04-25 11:17:08,0.636886931264735,37.1166365701089,-122.331022426237,2,1,27.72505,87.6021,-2.54684327112705,-0.0883582633372391,0.144258256115125
407699,2021-04-25 11:17:09,0.646078079152179,37.1166352887872,-122.331021817102,2,1,34.66033,94.37393,-2.50385859194009,-0.09973752355978,0.0939437600961506
407700,2021-04-25 11:17:10,0.605428407094857,37.1166340076467,-122.331021208028,2,1,57.4034,95.21843,-2.49589180790879,-0.0851976109952843,0.0785779396314391
407701,2021-04-25 11:17:11,0.594063339981174,37.1166327264976,-122.331020598934,2,1,15.46499,95.21893,-2.54932061767409,-0.105310358395158,0.100207712087274
407702,2021-04-25 11:17:12,0.634656718119215,37.1166314451697,-122.33101998971,2,1,15.46499,95.44004,-2.53410893249353,-0.0705417032721576,0.0710779516248682
407703,2021-04-25 11:17:13,0.630516169991451,37.11663016387,-122.331019380495,2,1,15.46499,97.5221,-2.4852998108059,-0.0707762167704922,0.0706849796656896
407704,2021-04-25 11:17:14,0.619722723728398,37.1166288825935,-122.331018771264,2,1,20.87881,98.50987,-2.50699838179486,-0.113208775376665,0.0649877286380692
407705,2021-04-25 11:17:15,0.638838123848225,37.1166276013505,-122.331018162006,2,1,31.70646,98.32796,-2.54630034780258,-0.106712189327923,0.0521468561863054
407706,2021-04-25 11:17:16,0.62043071283849,37.1166263200653,-122.331017552708,2,1,34.40953,95.75135,-2.57605949177112,-0.120463350784507,0.0788948087631015
407707,2021-04-25 11:17:17,0.662301574019567,37.1166250387348,-122.331016943378,2,1,39.81569,98.54972,-2.53456892599574,-0.0982351627311698,0.0330812503376851
407708,2021-04-25 11:17:18,0.637771298649166,37.1166237576075,-122.331016334093,2,1,49.83138,111.405,-2.5187129552156,0.0349663114762941,0.128678053789391
407709,2021-04-25 11:17:19,0.623109593531866,37.1166224762144,-122.331015724521,2,1,58.9965,130.6209,-1.7690691276302,0.382401039030959,0.0396982767549264
407710,2021-04-25 11:17:20,0.573551987339613,37.1166211946766,-122.33101511489,2,1,58.96372,83.14101,-2.71962877346953,-0.503580239929051,0.129284215873712
407711,2021-04-25 11:17:21,0.636168432363239,37.1166199143044,-122.3310145057,2,1,98.54798,78.94949,-1.90344096028143,0.178008926697856,0.0583891212396429
407712,2021-04-25 11:17:22,0.617201568720198,37.116618634883,-122.331013896596,2,1,87.84875,97.64703,-2.10354812965219,-0.180360965818524,-0.0998103534012912
407713,2021-04-25 11:17:23,0.641588815139342,37.1166173555123,-122.331013287525,2,1,88.49787,129.9727,-2.28229563727809,-0.22197930839858,-0.0159890133538093
407714,2021-04-25 11:17:24,0.626909961437973,37.1166160761811,-122.331012678455,2,1,73.94225,128.3692,-2.31069123532613,-0.205453103024906,-0.0200999977648062
407715,2021-04-25 11:17:25,0.619469535066595,37.11661479675,-122.331012069339,2,1,39.91697,89.02971,-2.30106663866095,-0.208897893430354,-0.0169860425206507
407716,2021-04-25 11:17:26,0.616968724197745,37.1166135173456,-122.331011460194,2,1,35.88762,86.39879,-2.23713094209344,-0.203563915868357,-0.0110871966443329
407717,2021-04-25 11:17:27,0.629956628293339,37.1166122383777,-122.331010851091,2,1,27.82893,83.74801,-2.10574941029958,-0.172321260023933,-0.0871236194349353
407718,2021-04-25 11:17:28,0.625631150699867,37.1166109597261,-122.331010241983,2,1,36.15638,87.31512,-2.04432952675196,-0.122129352457328,-0.104291668656796
407719,2021-04-25 11:17:29,0.613919257085759,37.1166096808183,-122.331009632849,2,1,69.24803,106.7116,-2.1131187948987,-0.180385605607094,-0.0858666240541505
407720,2021-04-25 11:17:30,0.603013564840337,37.1166084022418,-122.331009023681,2,1,82.72392,189.6467,-2.04038061650725,-0.115304990972707,-0.0819410969808533
407721,2021-04-25 11:17:31,0.665758158208033,37.1166071238539,-122.331008414534,2,1,73.89694,123.5173,-2.20362583713221,-0.19218544739961,-0.0687254562282319
407722,2021-04-25 11:17:32,0.610697263832293,37.1166058452279,-122.33100780532,2,1,73.74015,93.62974,-2.0854234866674,-0.194208125185738,-0.0769596236586281
407723,2021-04-25 11:17:33,0.621118004056301,37.116604566567,-122.3310071959,2,1,83.78005,150.5436,-2.10189218989224,-0.264422358402779,-0.115427798856664
407724,2021-04-25 11:17:34,0.644242827279672,37.1166032880089,-122.331006586522,2,1,52.39528,166.6908,-2.15477029277359,-0.24322982935331,-0.0103490682690225
407725,2021-04-25 11:17:35,0.609703074150431,37.1166020094938,-122.331005977085,2,1,52.47925,90.86427,-2.13545760499109,-0.257135927784522,-0.0821320043714793
407726,2021-04-25 11:17:36,0.665091127375377,37.1166007314436,-122.331005367689,2,1,29.65627,90.34678,-2.70835802305806,-0.534097796753157,0.262349026094896
407727,2021-04-25 11:17:37,0.597226370084682,37.1165994530011,-122.331004758298,2,1,45.42388,84.9553,-1.8888123682888,0.0290317374302559,-0.183485105946679
407728,2021-04-25 11:17:38,0.630178285848704,37.1165981743384,-122.331004148963,2,1,75.7986,84.68267,-2.13561765996157,-0.125889560394158,-0.145929393084582
407729,2021-04-25 11:17:39,0.705031159482901,37.1165968958129,-122.331003539631,2,1,78.44446,84.36997,-2.11064914998284,-0.117145157355872,-0.142100004277647
407730,2021-04-25 11:17:40,0.63473909706669,37.1165956173465,-122.331002930265,2,1,45.11847,84.01094,-2.13607417637827,-0.133554319297542,-0.134465779298948
407731,2021-04-25 11:17:41,0.624309661773459,37.1165943387863,-122.331002320865,2,1,20.34003,83.36085,-2.1597179837275,-0.129588887993921,-0.112699804113297
407732,2021-04-25 11:17:42,0.604905923546353,37.1165930602113,-122.331001711434,2,1,20.34003,81.646,-2.14024775739456,-0.120675722530854,-0.115743722712161
407733,2021-04-25 11:17:43,0.615158490393298,37.1165917816031,-122.331001101962,2,1,20.48947,86.14672,-2.1766343772127,-0.168635612642644,-0.109137158493635
407734,2021-04-25 11:17:44,0.650183948212497,37.116590503125,-122.331000492469,2,1,20.78836,89.49367,-2.05496512938605,-0.128923941282261,-0.192654169611917
407735,2021-04-25 11:17:45,0.661866411874948,37.1165892247714,-122.330999882944,2,1,20.78836,92.46167,-2.10953198085419,-0.16160169494774,-0.20285205885031
407736,2021-04-25 11:17:46,0.614947776805529,37.1165879462573,-122.330999273398,2,1,35.28814,94.00391,-2.12969752546188,-0.142718764573299,-0.184502730217818
407737,2021-04-25 11:17:47,0.662886921580817,37.1165866676178,-122.330998663814,2,1,53.23718,94.23959,-2.11244892489818,-0.176675637005015,-0.185084005136068
407738,2021-04-25 11:17:48,0.621399999899306,37.1165853890094,-122.330998054186,2,1,31.13614,99.27052,-2.10911226005758,-0.233744307632111,-0.192067256806795
407739,2021-04-25 11:17:49,0.621625081036317,37.1165841102069,-122.330997444498,2,1,42.38428,98.77101,-2.13821185705852,-0.163301204030474,-0.170164403169579
407740,2021-04-25 11:17:50,0.681901028641522,37.1165828312667,-122.330996834781,2,1,68.64899,100.7347,-2.14584567908835,-0.135313098109878,-0.152666360994014
407741,2021-04-25 11:17:51,0.634694498607144,37.1165815525049,-122.330996225068,2,1,62.34221,100.8249,-2.14638339034581,-0.146058798779531,-0.161819475134126
407742,2021-04-25 11:17:52,0.658689263075585,37.1165802735397,-122.330995615302,2,1,36.9013,99.22187,-2.24748739835167,-0.202558678293978,-0.132465730688339
407743,2021-04-25 11:17:53,0.634016045793115,37.1165789944289,-122.330995005469,2,1,41.39385,97.16326,-2.19091233128856,-0.185948786193533,-0.173685820967789
407744,2021-04-25 11:17:54,0.611609336358497,37.1165777156492,-122.330994395661,2,1,42.98149,95.72851,-2.05378259520994,-0.134633870923643,-0.277826169434131
407745,2021-04-25 11:17:55,0.674590406247674,37.1165764369808,-122.330993785807,2,1,41.10873,121.0878,-2.1131935309966,-0.181773741528603,-0.200217779609086
407746,2021-04-25 11:17:56,0.629008726970765,37.116575158188,-122.330993175943,2,1,31.01267,180.0294,-2.34535050480451,-0.295452560236872,-0.164081611473194
407747,2021-04-25 11:17:57,0.624984640775559,37.1165738798652,-122.330992566063,2,1,46.88451,71.422,-2.09720857816819,-0.35290986098958,-0.315101077414819
407748,2021-04-25 11:17:58,0.651324601269434,37.1165726026487,-122.330991955925,2,1,82.94535,80.00872,-1.66802624044856,0.210786520648675,-0.18239175444003
407749,2021-04-25 11:17:59,0.613665418430553,37.1165713262273,-122.330991345458,2,1,95.2042,87.89637,-1.1489178119226,0.549792921137634,-0.0095187650600438
407750,2021-04-25 11:18:00,0.600112981332916,37.116570049151,-122.33099073524,2,1,114.6515,104.7078,-1.54610041742654,0.373681222099775,-0.253360857490316
407751,2021-04-25 11:18:01,0.571873448550835,37.1165687712812,-122.330990125186,2,1,108.9083,90.48123,-2.24066528040125,-0.109521112052098,0.0661434259276905
407752,2021-04-25 11:18:02,0.631424272333907,37.116567493246,-122.330989515093,2,1,108.2709,111.8069,-2.07075948369902,-0.115772284938116,-0.206479286329711
407753,2021-04-25 11:18:03,0.621182109066893,37.1165662138211,-122.330988904903,2,1,91.09207,86.66901,-2.82145159182344,-0.387966729330304,0.36649057651987
407754,2021-04-25 11:18:04,0.639911610167005,37.1165649332697,-122.330988294386,2,1,84.01956,93.23763,-2.45114784814273,0.0527204889162415,0.0176134427632028
407755,2021-04-25 11:18:05,0.610851978235305,37.1165636530323,-122.330987684003,2,1,105.2751,103.5629,-2.39864516625348,-0.0331772518699928,0.0021800680361524
407756,2021-04-25 11:18:06,0.67792751702775,37.1165623729674,-122.330987073644,2,1,97.65703,79.96454,-2.35728404888594,-0.0460392613258329,-0.0313003873194226
407757,2021-04-25 11:18:07,0.609556956553665,37.1165610930408,-122.330986463297,2,1,32.53687,89.53784,-2.34877224539607,-0.0228831431139839,-0.0068197959010501
407758,2021-04-25 11:18:08,0.667088835576454,37.1165598130829,-122.330985852912,2,1,25.59272,89.21898,-2.3674467919185,-0.0330478389297075,-0.0077238532918537
407759,2021-04-25 11:18:09,0.653923622381819,37.1165585331244,-122.330985242496,2,1,11.70441,82.86138,-2.34321535214792,-0.006739969722058,-0.0115637475038469
407760,2021-04-25 11:18:10,0.658914726906352,37.1165572531535,-122.330984632044,2,1,11.70441,81.36419,-2.34901967806952,-0.041106561969892,-0.0226906074059932
407761,2021-04-25 11:18:11,0.648036703584798,37.1165559730588,-122.330984021532,2,1,11.70441,84.15497,-2.43340459404068,0.0259871087913385,0.0040916644376587
407762,2021-04-25 11:18:12,0.630752165229227,37.116554692823,-122.33098341095,2,1,11.70441,91.57408,-2.41753663932394,-0.0280262252384618,0.0072652195635102
407763,2021-04-25 11:18:13,0.653350322696234,37.1165534128175,-122.330982800396,2,1,13.46118,97.73926,-2.36011802490286,-0.0497480692823115,-0.0420325131873775
407764,2021-04-25 11:18:14,0.63583622322364,37.1165521329777,-122.330982189856,2,1,16.97472,97.7629,-2.35957768210223,-0.0375307692356731,-0.0549377211688191
407765,2021-04-25 11:18:15,0.598711799180231,37.1165508531878,-122.330981579302,2,1,16.97472,99.0801,-2.33325633395777,-0.0553637899969066,-0.0579563910526786
407766,2021-04-25 11:18:16,0.670744395083563,37.1165495734124,-122.330980968701,2,1,16.97472,99.09226,-2.34232200065605,-0.0760424760200887,-0.0451497025850351
407767,2021-04-25 11:18:17,0.616600377650425,37.1165482934801,-122.330980358027,2,1,22.14703,99.69002,-2.41094435322251,-0.0628680766222277,-0.0139547750656331
407768,2021-04-25 11:18:18,0.647490382113364,37.1165470136254,-122.330979747337,2,1,32.49166,100.8322,-2.32968903184145,-0.0714808408701607,-0.0114279674926872
407769,2021-04-25 11:18:19,0.646671307085025,37.1165457338157,-122.330979136613,2,1,28.0193,102.5749,-2.38045534836885,-0.0830493651006527,-0.0012212910937255
407770,2021-04-25 11:18:20,0.679852993622229,37.1165444538469,-122.330978525824,2,1,19.07458,103.6055,-2.36307243649639,-0.0565303355694855,-0.0048113170844771
407771,2021-04-25 11:18:21,0.612987115942843,37.1165431740895,-122.330977915061,2,1,19.07458,104.8382,-2.31223648333158,-0.0476630102018176,0.0220160452774657
407772,2021-04-25 11:18:22,0.659161552195516,37.116541894389,-122.33097730428,2,1,21.05891,105.1866,-2.34862383384942,-0.0395578729805449,0.0234999348969977
407773,2021-04-25 11:18:23,0.626374431386015,37.1165406146089,-122.330976693458,2,1,25.02758,108.3771,-2.36067167596838,-0.0215404988309957,0.0236853067039174
407774,2021-04-25 11:18:24,0.630607280438458,37.1165393349127,-122.330976082622,2,1,28.94467,106.8699,-2.3287036129019,-0.0288759295845787,0.0347643980485969
407775,2021-04-25 11:18:25,0.598179779187134,37.1165380553417,-122.330975471772,2,1,36.77885,106.5041,-2.3022852828793,-0.0296289837987002,0.0017888667263775
407776,2021-04-25 11:18:26,0.614591939353315,37.1165367756265,-122.330974860868,2,1,37.01179,105.0351,-2.33143439136759,-0.0261756836262448,0.006894623636755
407777,2021-04-25 11:18:27,0.635190685524247,37.1165354959027,-122.330974249928,2,1,32.48152,104.0748,-2.29048014994327,-0.0265966126454665,-0.0052037820481522
407778,2021-04-25 11:18:28,0.625765448707415,37.1165342162677,-122.33097363898,2,1,22.48924,104.8213,-2.37696380768401,-0.0280627179517123,0.0397667608065867
407779,2021-04-25 11:18:29,0.637729219705265,37.1165329364976,-122.330973027972,2,1,22.48924,103.3494,-2.33126620457415,-0.0302940818416476,0.0177731263980026
407780,2021-04-25 11:18:30,0.652203386502359,37.1165316564448,-122.330972416851,2,1,49.96304,103.0449,-2.47354157905805,-0.0307158394561455,0.0229474595665603
407781,2021-04-25 11:18:31,0.59043476762744,37.1165303762902,-122.330971805673,2,1,78.61001,105.5323,-2.36145756951077,-0.0099779106875664,0.0066547932187067
407782,2021-04-25 11:18:32,0.62464799658235,37.116529096245,-122.330971194496,2,1,26.00876,106.5797,-2.38435806405349,-0.0398359629563717,-0.0025474768570347
407783,2021-04-25 11:18:33,0.649282659015062,37.1165278162733,-122.330970583315,2,1,35.80387,110.8198,-2.39347070589828,-0.0353318723493038,-0.0111861268498012
407784,2021-04-25 11:18:34,0.570810424191892,37.1165265364665,-122.330969972142,2,1,54.27483,111.7346,-2.33184230975573,-0.0400564231499726,-0.0209941619627864
407785,2021-04-25 11:18:35,0.641714780843351,37.1165252567089,-122.330969360949,2,1,47.05757,106.7715,-2.37545569201331,-0.0517002138469922,0.0182774046178632
407786,2021-04-25 11:18:36,0.614905609391649,37.1165239769169,-122.330968749721,2,1,37.10013,108.1376,-2.35137510379407,-0.0132021306325716,0.0088907510807194
407787,2021-04-25 11:18:37,0.620852887424041,37.1165226970881,-122.330968138455,2,1,45.98835,106.9371,-2.39123126891623,-0.0108568688210199,-0.0013097552745721
407788,2021-04-25 11:18:38,0.613987441205294,37.1165214172708,-122.330967527155,2,1,49.69466,104.6505,-2.30558471905594,-0.003897431392272,-0.0072820523094076
407789,2021-04-25 11:18:39,0.678580998350758,37.1165201374285,-122.330966915818,2,1,21.55441,103.2552,-2.40913664105027,-0.0353433620634527,0.0024994770351505
407790,2021-04-25 11:18:40,0.60833731570274,37.116518857563,-122.330966304438,2,1,21.03896,101.7068,-2.39274818228755,-0.0462503004335185,0.031800338410249
407791,2021-04-25 11:18:41,0.637876478004053,37.1165175776197,-122.330965692987,2,1,20.00808,102.6714,-2.37597762616024,-0.0193605221824085,0.02080000492937
407792,2021-04-25 11:18:42,0.574890444289224,37.1165162977142,-122.330965081524,2,1,20.00808,105.6339,-2.37077286594924,-0.0379354534033462,0.0214697733317128
407793,2021-04-25 11:18:43,0.635106575790203,37.1165150178373,-122.330964470043,2,1,25.22763,105.3541,-2.38680986554242,-0.0195394650618082,0.0141855223910607
407794,2021-04-25 11:18:44,0.606238185713696,37.1165137380419,-122.330963858547,2,1,35.66674,103.6567,-2.32795742635357,-0.0389836553454097,0.0164742511464472
407795,2021-04-25 11:18:45,0.603204035955568,37.1165124582338,-122.330963247002,2,1,40.28878,104.1003,-2.40036520984135,-0.0238866136838367,0.0715590671701516
407796,2021-04-25 11:18:46,0.642234694377563,37.1165111783192,-122.330962635412,2,1,54.07645,105.0489,-2.40317378336186,-0.0008045377508409,0.0401313646513259
407797,2021-04-25 11:18:47,0.650046831020764,37.1165098984635,-122.330962023812,2,1,55.23663,103.3949,-2.41760168845178,-0.0731818779358286,0.0197943198337188
407798,2021-04-25 11:18:48,0.588416923913994,37.1165086186766,-122.330961412193,2,1,39.3826,101.9795,-2.39281522802156,-0.0474194661388306,0.0289450852968901
407799,2021-04-25 11:18:49,0.64363621058046,37.116507338905,-122.330960800548,2,1,41.31372,98.66969,-2.39035382285602,-0.0461953521957257,0.0149178898177106
407800,2021-04-25 11:18:50,0.598582343918286,37.1165060590434,-122.330960188846,2,1,27.67208,95.72874,-2.4216061145929,-0.0578394581181416,0.0019502340214688
407801,2021-04-25 11:18:51,0.596034319084899,37.1165047791951,-122.330959577111,2,1,16.00282,91.20412,-2.37374821617233,-0.0725070405644456,-0.0029938984323543
407802,2021-04-25 11:18:52,0.590069190586211,37.1165034993815,-122.330958965356,2,1,16.00282,89.63084,-2.42083339942382,-0.0377919074405416,0.0213057800261149
407803,2021-04-25 11:18:53,0.602841731830038,37.1165022195949,-122.3309583536,2,1,16.00282,91.6402,-2.34604194997149,0.0412454791095758,-0.0006323639675003
407804,2021-04-25 11:18:54,0.627339049568196,37.1165009398539,-122.330957741815,2,1,29.89181,94.76675,-2.37226660442741,-0.0378638075698722,0.0050566183162789
407805,2021-04-25 11:18:55,0.641029455224393,37.1164996601073,-122.330957129996,2,1,40.81123,95.9472,-2.39813309367264,-0.0273359471342193,0.0104515235189101
407806,2021-04-25 11:18:56,0.609787580706978,37.1164983803247,-122.330956518124,2,1,34.87209,98.77694,-2.40810529238978,-0.0886032436099066,0.0083420812275443
407807,2021-04-25 11:18:57,0.623494125404634,37.1164971004684,-122.330955906198,2,1,40.02594,100.4444,-2.34637048993421,-0.0016396126962151,-0.0217103724823996
407808,2021-04-25 11:18:58,0.633995151366407,37.1164958206827,-122.330955294271,2,1,50.35196,103.4189,-2.36620018442874,-0.0425196216967182,-0.0472622232038743
407809,2021-04-25 11:18:59,0.629937593845077,37.1164945407989,-122.330954682288,2,1,44.21885,103.6603,-2.42246232137142,-0.0017807075875392,0.0157592886434501
407810,2021-04-25 11:19:00,0.58173569331816,37.116493260886,-122.330954070249,2,1,31.87928,102.7521,-2.44566620101318,-0.101486842201951,0.0062057404252644
407811,2021-04-25 11:19:01,0.671173429182939,37.1164919809713,-122.330953458172,2,1,35.50995,109.7659,-2.42411898093683,-0.0520024638412737,0.0151242009459151
407812,2021-04-25 11:19:02,0.659290615471451,37.1164907009448,-122.330952846022,2,1,42.7713,87.4342,-2.44553347653812,-0.0582932051107123,0.0172493201249541
407813,2021-04-25 11:19:03,0.651101424557287,37.1164894210335,-122.330952233878,2,1,33.00533,97.74222,-2.39641358678789,-0.0639450486162742,0.0112677838906694
407814,2021-04-25 11:19:04,0.595746840666326,37.1164881411929,-122.330951621717,2,1,13.4734,94.60803,-2.39620272839747,-0.0741580539189687,0.0265616768462521
407815,2021-04-25 11:19:05,0.670527745705753,37.1164868613249,-122.330951009511,2,1,13.4734,92.88452,-2.40434866398027,-0.0719034168175784,0.0164949751804687
407816,2021-04-25 11:19:06,0.64968691453877,37.1164855814609,-122.330950397287,2,1,13.4734,94.13968,-2.42589000682881,-0.0555091109579307,0.010933256301263
407817,2021-04-25 11:19:07,0.633300523525773,37.1164843015508,-122.330949785015,2,1,13.14249,91.62357,-2.42922838208728,-0.0681748324150914,0.0112039414091343
407818,2021-04-25 11:19:08,0.574275978274024,37.1164830216246,-122.330949172706,2,1,12.48067,89.59861,-2.43519441864325,-0.0631785068045953,0.0068896232134265
407819,2021-04-25 11:19:09,0.646759751691657,37.1164817417571,-122.330948560378,2,1,12.48067,86.35987,-2.41394390158497,-0.0842562695637688,0.01894834705812
407820,2021-04-25 11:19:10,0.671108773220897,37.1164804619754,-122.330947948047,2,1,12.48067,82.34394,-2.41226498637515,-0.0629995472978972,0.0246982500289213
407821,2021-04-25 11:19:11,0.691950160161227,37.1164791822748,-122.330947335714,2,1,12.48067,87.9954,-2.36596775934056,-0.0638096470264982,0.0098465860517366
407822,2021-04-25 11:19:12,0.592376316791366,37.116477902551,-122.330946723342,2,1,10.88355,90.60047,-2.38533080303009,-0.062593969190978,0.0118186951251582
407823,2021-04-25 11:19:13,0.652860011148832,37.1164766227759,-122.33094611092,2,1,7.68931,89.34779,-2.40622921869796,-0.071549259917228,0.01370337783699
407824,2021-04-25 11:19:14,0.579470742364991,37.1164753429773,-122.330945498461,2,1,7.68931,83.93644,-2.40473138072525,-0.0627875528594628,0.0109107261496493
407825,2021-04-25 11:19:15,0.600649908580806,37.1164740631377,-122.330944885958,2,1,7.68931,70.10873,-2.44642482718699,-0.0627417470810267,0.0049874488052905
407826,2021-04-25 11:19:16,0.657318878085335,37.1164727831934,-122.33094427339,2,1,7.68931,61.02814,-2.44262258954345,-0.0303235646548378,0.0119359056952778
407827,2021-04-25 11:19:17,0.596116738468417,37.1164715033082,-122.330943660811,2,1,7.68931,70.96468,-2.38397952361891,-0.0703153931255291,0.0053402777173074
407828,2021-04-25 11:19:18,0.637477788869833,37.1164702235371,-122.330943048249,2,1,7.68931,77.55701,-2.35101951746891,-0.0346222257371463,-0.0173923401470462
407829,2021-04-25 11:19:19,0.628553797672048,37.1164689437719,-122.330942435658,2,1,7.68931,85.79107,-2.39713745246006,-0.0406501660086969,0.0073592003586204
407830,2021-04-25 11:19:20,0.610331011995447,37.116467664038,-122.330941823041,2,1,11.07541,92.17887,-2.43925830176928,-0.0648242058386742,0.0338785800252182
407831,2021-04-25 11:19:21,0.622021765093902,37.1164663844066,-122.330941210427,2,1,17.84762,90.56069,-2.38699395772847,-0.0289868830383995,0.0032682461492889
407832,2021-04-25 11:19:22,0.658712449818596,37.1164651048968,-122.330940597824,2,1,17.84762,88.99009,-2.3654202533478,-0.0141647277828404,-0.0050182211835402
407833,2021-04-25 11:19:23,0.592150757848244,37.1164638254022,-122.330939985191,2,1,19.72928,89.46267,-2.37785645737655,-0.0294311669120655,-0.001209402646877
407834,2021-04-25 11:19:24,0.630394710160178,37.1164625458632,-122.330939372511,2,1,23.49259,89.12656,-2.34229272750644,-0.0082576199078231,0.0141953944966607
407835,2021-04-25 11:19:25,0.659130441625053,37.1164612662427,-122.330938759771,2,1,23.49259,88.44596,-2.43287743232763,-0.0498860793849869,0.0158982269379646
407836,2021-04-25 11:19:26,0.628143246950426,37.1164599865142,-122.330938146966,2,1,28.78457,91.42879,-2.40323437140792,-0.0766871147440731,-0.0332451963885634
407837,2021-04-25 11:19:27,0.669990412782192,37.1164587064337,-122.330937533998,2,1,33.92079,93.63169,-2.48723622522381,-0.0135323291594603,-0.0561197476935318
407838,2021-04-25 11:19:28,0.593988926607039,37.1164574259948,-122.330936920834,2,1,23.02532,93.53727,-2.60312054772052,-0.0949610964096732,-0.059617852374952
407839,2021-04-25 11:19:29,0.651969185701305,37.1164561454148,-122.330936307542,2,1,23.02532,93.38916,-2.67475394280376,-0.0216604309323739,-0.0486330825535435
407840,2021-04-25 11:19:30,0.621943633200855,37.1164548648084,-122.330935694203,2,1,29.29483,95.76342,-2.62521330618506,-0.0205156438626466,-0.0713290595377911
407841,2021-04-25 11:19:31,0.612411008335078,37.1164535843759,-122.330935080939,2,1,45.57768,97.91625,-2.56868979071781,-0.0156504912530851,-0.0635491551316009
407842,2021-04-25 11:19:32,0.644791831711052,37.1164523039376,-122.330934467636,2,1,43.32269,99.15619,-2.6650804959184,-0.0165802110515888,-0.0303246851548418
407843,2021-04-25 11:19:33,0.616854821040739,37.1164510234807,-122.330933854287,2,1,23.83735,99.48539,-2.57496345902919,-0.0017061190922975,-0.0549672498304439
407844,2021-04-25 11:19:34,0.61207874141539,37.1164497430481,-122.330933240912,2,1,23.83735,99.93752,-2.61433085099793,-0.0379231326750708,-0.0213818996258852
407845,2021-04-25 11:19:35,0.5984594977722,37.1164484625687,-122.330932627477,2,1,27.8677,100.0178,-2.63612868672188,-0.0024223064355574,-0.014175139674031
407846,2021-04-25 11:19:36,0.626800666633143,37.1164471821541,-122.330932014045,2,1,35.9284,100.4122,-2.61802419484868,-0.0235316604389537,-0.028025122279442
407847,2021-04-25 11:19:37,0.607940674010796,37.1164459017056,-122.33093140056,2,1,71.9597,101.6652,-2.67238241941701,-0.0189882639686743,-0.0037613091637123
407848,2021-04-25 11:19:38,0.635461127032919,37.1164446211901,-122.330930786997,2,1,44.43892,101.715,-2.63797168782755,-0.0318578167081039,-0.0373903141190843
407849,2021-04-25 11:19:39,0.606442764434676,37.1164433407502,-122.330930173449,2,1,32.61797,100.4957,-2.62646313491516,-0.0278189793448428,-0.0367761598791738
407850,2021-04-25 11:19:40,0.610658866047827,37.116442060332,-122.330929559878,2,1,25.17376,101.0689,-2.60201160944589,-0.0213395683710896,-0.0158669919898046
407851,2021-04-25 11:19:41,0.632651675536438,37.1164407799549,-122.330928946296,2,1,10.28535,100.162,-2.61956625155237,-0.0274272325890875,-0.0073915686969718
407852,2021-04-25 11:19:42,0.609313245043995,37.1164394996344,-122.330928332716,2,1,10.28535,98.31212,-2.56209744960224,-0.0264836291018944,-0.0275151459678105
407853,2021-04-25 11:19:43,0.581799143248489,37.1164382193667,-122.330927719134,2,1,10.28535,93.79975,-2.59885555372672,-0.0201418075031586,-0.0358300025696251
407854,2021-04-25 11:19:44,0.608581697123842,37.1164369390485,-122.330927105489,2,1,10.28535,89.2789,-2.61297619475912,-0.0194207360179887,-0.0368714382612342
407855,2021-04-25 11:19:45,0.672752189949519,37.1164356587702,-122.330926491834,2,1,10.28535,92.14329,-2.55317233221945,-0.0126378492033565,-0.0456387923051812
407856,2021-04-25 11:19:46,0.604009726475137,37.1164343785942,-122.330925878203,2,1,13.0084,94.38419,-2.58098157986688,-0.0272569658056697,-0.0187554592305668
407857,2021-04-25 11:19:47,0.62906366185885,37.1164330983875,-122.330925264518,2,1,18.45449,93.51314,-2.58996773037237,-0.0165519189873548,-0.0026625130050419
407858,2021-04-25 11:19:48,0.637313475634999,37.1164318180365,-122.330924650712,2,1,18.45449,94.73719,-2.6671083162242,-0.0251937857452908,-0.0465657276367784
407859,2021-04-25 11:19:49,0.64291621371294,37.1164305375539,-122.330924036782,2,1,17.05475,96.00483,-2.66614165094006,-0.047721210400043,-0.045245716076091
407860,2021-04-25 11:19:50,0.611308953681989,37.1164292570975,-122.330923422828,2,1,14.25526,97.19218,-2.66709823012834,-0.0653178929966514,-0.0281218603678928
407861,2021-04-25 11:19:51,0.652112110354258,37.1164279767509,-122.330922808911,2,1,14.25526,97.48109,-2.58253871397415,-0.043633350081001,-0.0490604787266769
407862,2021-04-25 11:19:52,0.550412407977678,37.1164266964102,-122.330922194966,2,1,14.25526,96.9668,-2.63351216243509,-0.0498254637540023,-0.0303336448470544
407863,2021-04-25 11:19:53,0.59441107290963,37.1164254160553,-122.330921580978,2,1,25.68558,96.73386,-2.6752216885711,-0.0648449964809903,-0.0073325536839983
407864,2021-04-25 11:19:54,0.59037358461851,37.1164241357047,-122.330920966957,2,1,48.54622,97.06,-2.7186210870345,-0.0622691224934982,-0.0152869210996613
407865,2021-04-25 11:19:55,0.660768290391318,37.1164228554581,-122.330920352973,2,1,48.67831,98.75367,-2.51183974475926,-0.0752125505373494,-0.198936963222224
407866,2021-04-25 11:19:56,0.626956772932836,37.1164215748782,-122.330919738715,2,1,55.53174,100.3819,-2.78773425605654,0.165026183326813,-0.0471415722593918
407867,2021-04-25 11:19:57,0.58862700853112,37.116420293604,-122.330919123656,2,1,71.20537,99.85992,3.12472128052638,0.176170084642301,-0.0509183119320713
407868,2021-04-25 11:19:58,0.63187961121589,37.1164190117344,-122.330918507253,2,1,71.95821,155.4174,3.0750874345263,0.178919492909031,-0.326663553916365
407869,2021-04-25 11:19:59,0.610641326253015,37.1164177297043,-122.330917888804,2,1,56.64747,97.25829,2.12880744397736,-0.104646438974329,0.146731681082795
407870,2021-04-25 11:20:00,0.58583445804117,37.1164164479346,-122.330917269212,2,1,51.25629,93.24218,2.24282164350643,-0.115170115555254,0.0273368503503739
407871,2021-04-25 11:20:01,0.621714332699723,37.1164151662873,-122.330916649374,2,1,75.84523,90.20933,2.04300518717506,-0.0198781492889791,0.0460296615301274
407872,2021-04-25 11:20:02,0.602665476386564,37.1164138846825,-122.330916029501,2,1,77.82269,85.443,2.09585589231284,-0.0429166661534308,0.0609933628766872
407873,2021-04-25 11:20:03,0.628712075952744,37.1164126030233,-122.330915409858,2,1,35.91232,89.09431,2.18734293185521,-0.056505618340775,0.0399667511897673
407874,2021-04-25 11:20:04,0.567569038597149,37.1164113213663,-122.330914790267,2,1,41.52432,93.64791,2.10721376053871,-0.0180800722467573,0.0848264073053561
407875,2021-04-25 11:20:05,0.599347113661867,37.116410039665,-122.33091417089,2,1,60.85236,94.13979,2.23081858544055,-0.0599796383490821,0.0216265962032168
407876,2021-04-25 11:20:06,0.583124949322522,37.116408757962,-122.330913551561,2,1,63.47672,96.96685,2.16146856882213,-0.0293193988776881,0.0467477690283566
407877,2021-04-25 11:20:07,0.65598667423273,37.1164074763074,-122.330912932157,2,1,36.30934,97.52919,2.17622037880693,0.0109276110351306,0.043578749455232
407878,2021-04-25 11:20:08,0.628531169204791,37.1164061946578,-122.330912312824,2,1,41.34003,96.70894,2.15941385568215,-0.006404607328422,0.0359572773475463
407879,2021-04-25 11:20:09,0.590695238166351,37.1164049130244,-122.330911693511,2,1,41.49403,96.87886,2.15782303666661,0.029359332063813,0.0769219546586637
407880,2021-04-25 11:20:10,0.57208834650215,37.1164036313916,-122.330911074282,2,1,21.67929,96.01902,2.25705971078027,-0.0355374571036737,0.0682129072309531
407881,2021-04-25 11:20:11,0.555747483815648,37.1164023497445,-122.330910455269,2,1,21.67929,96.8717,2.32083426777786,-0.0362567685408361,0.0254139236271478
407882,2021-04-25 11:20:12,0.56561536744638,37.1164010681301,-122.330909836202,2,1,26.98297,98.13275,2.22749774959224,0.02120873652384,0.0736496954414839
407883,2021-04-25 11:20:13,0.558923000359944,37.1163997865817,-122.33090921701,2,1,44.36905,100.1561,2.18258927656198,-0.0548748728662485,0.0825625889543813
407884,2021-04-25 11:20:14,0.596851003644041,37.1163985050716,-122.33090859777,2,1,55.62144,101.2048,2.18408884563979,-0.0087618724297134,0.0816225602047861
407885,2021-04-25 11:20:15,0.58129667647287,37.1163972235695,-122.33090797857,2,1,67.34642,99.22967,2.20186403984439,0.0041998200093504,0.0575211748147639
407886,2021-04-25 11:20:16,0.59754630673217,37.1163959420813,-122.330907359418,2,1,80.02225,99.93748,2.28886880835011,-0.043264555262462,0.0388472879066022
407887,2021-04-25 11:20:17,0.611261300877966,37.1163946606325,-122.330906740218,2,1,40.03342,100.0397,2.2425835169426,-0.0522010807614275,-0.0525983562983536
407888,2021-04-25 11:20:18,0.644730686347855,37.1163933791911,-122.330906121073,2,1,37.49283,96.68073,2.20956939611144,-0.0506985537155286,-0.0132827059866082
407889,2021-04-25 11:20:19,0.618577650235541,37.1163920977769,-122.330905501925,2,1,24.57087,91.26127,2.15768352106953,-0.0290528548556285,-0.0093487067385708
407890,2021-04-25 11:20:20,0.593676253274412,37.1163908163922,-122.330904882764,2,1,8.889298,80.81307,2.20014652884354,-0.0488769221497346,-0.008447506660894
407891,2021-04-25 11:20:21,0.60189447722177,37.1163895350322,-122.330904263611,2,1,8.889298,58.10448,2.15482730686893,-0.0466123968504589,-0.0124805131822059
407892,2021-04-25 11:20:22,0.59774807980625,37.1163882537093,-122.330903644426,2,1,8.889298,58.85491,2.15399057641697,-0.0498115975770566,-0.0102912836225602
