Seconds,R_Time,Depth,Lat,Long,Resp_Num,Sleep_Num,Stroke_Rate,Heart_Rate,heading,pitch,roll
352618,2021-04-09 11:31:46,-1.12352529647901,37.1165571967886,-122.323321252345,2,1,0.5631641,82.16906,0.197113713145778,-0.0476248350110808,0.328078408918053
352619,2021-04-09 11:31:47,-1.15593427312236,37.1165570739481,-122.323321135912,2,1,0.5631641,81.34286,0.195164933347894,-0.0684555352254789,0.33702324817036
352620,2021-04-09 11:31:48,-1.13297474344133,37.1165569511076,-122.323321019479,2,1,0.5631641,81.902,0.213721092834345,-0.076785266964934,0.338440970817626
352621,2021-04-09 11:31:49,-1.16059901862864,37.1165568282671,-122.323320903046,2,1,0.5631641,83.51451,0.217898450850261,-0.05188165612479,0.345518223217526
352622,2021-04-09 11:31:50,-1.1302205886425,37.1165567054266,-122.323320786613,2,1,0.5631641,83.02297,0.194476504204443,-0.0535412150864745,0.330960692040872
352623,2021-04-09 11:31:51,-1.20673227252938,37.1165565825861,-122.32332067018,2,1,0.5631641,81.94173,0.200433034724946,-0.0578261089829999,0.33297239436505
352624,2021-04-09 11:31:52,-1.17183711470405,37.1165564597456,-122.323320553747,2,1,0.5631641,81.38891,0.216905376761935,-0.0693997005910458,0.335252230221336
352625,2021-04-09 11:31:53,-1.14943575324684,37.1165563369051,-122.323320437314,2,1,0.5631641,82.1916,0.229088761419812,-0.0729010981540054,0.339081621007239
352626,2021-04-09 11:31:54,-1.12836100051405,37.1165562140646,-122.323320320881,2,1,0.5631641,82.91704,0.227033192392418,-0.0414158292681994,0.348202770066368
352627,2021-04-09 11:31:55,-1.14533551963269,37.1165560912241,-122.323320204448,2,1,0.5631641,82.05004,0.180174232716421,-0.0716129235852125,0.303978613104782
352628,2021-04-09 11:31:56,-1.12387890540666,37.1165559683836,-122.323320088015,2,1,0.5631641,80.51997,0.236937172681857,-0.0640856209719442,0.349750107291988
352629,2021-04-09 11:31:57,-1.15623674739469,37.1165558455431,-122.323319971582,2,1,0.5631641,80.33733,0.213223156590129,-0.0730779345085677,0.336193801920031
352630,2021-04-09 11:31:58,-1.1544289793758,37.1165557227026,-122.323319855149,2,1,0.5631641,81.46016,0.22923816279982,-0.0572249057536236,0.351329204205698
352631,2021-04-09 11:31:59,-1.20868123954635,37.1165555998621,-122.323319738716,2,1,0.5631641,81.42224,0.200614745100338,-0.0487337786066011,0.342771768423679
352632,2021-04-09 11:32:00,-1.13848325465998,37.1165554770216,-122.323319622282,2,1,0.5631641,80.58383,0.223835141886938,-0.0509239196905698,0.332297737816814
352633,2021-04-09 11:32:01,-1.13786625204221,37.1165553541811,-122.323319505849,2,1,0.5631641,79.68766,0.219822055612264,-0.0724328546040181,0.329301818557439
352634,2021-04-09 11:32:02,-1.12017048777595,37.1165552313406,-122.323319389416,2,1,0.5631641,80.51123,0.238739077051691,-0.0733806769057697,0.339492440609746
352635,2021-04-09 11:32:03,-1.17497980445394,37.1165551085001,-122.323319272983,2,1,0.5631641,81.39154,0.232817517250848,-0.0750340197728287,0.348831464802426
352636,2021-04-09 11:32:04,-1.14158992223856,37.1165549856596,-122.32331915655,2,1,0.5631641,80.99006,0.188666858478041,-0.036691191973642,0.312065660342143
352637,2021-04-09 11:32:05,-1.13947195591356,37.1165548628191,-122.323319040117,2,1,0.5631641,80.25979,0.239750220780498,-0.0367979372405673,0.342133625087372
352638,2021-04-09 11:32:06,-1.15996960603033,37.1165547399786,-122.323318923684,2,1,0.5631641,80.48165,0.225637717784265,-0.0418974596129773,0.337022024322784
352639,2021-04-09 11:32:07,-1.16361890349449,37.1165546171381,-122.323318807251,2,1,0.5631641,81.3598,0.229808528192786,-0.0668473724850795,0.332330119452822
352640,2021-04-09 11:32:08,-1.13673654136062,37.1165544942976,-122.323318690818,2,1,0.5631641,80.37991,0.220760935253495,-0.0648115419483226,0.33276025713825
352641,2021-04-09 11:32:09,-1.15283154314668,37.1165543714571,-122.323318574385,2,1,0.5631641,79.45862,0.259460758624365,-0.0455058206264175,0.352173123827167
352642,2021-04-09 11:32:10,-1.11808354814024,37.1165542486166,-122.323318457952,2,1,0.5631641,78.80116,0.227071703688688,-0.0389259122828548,0.341758489649567
352643,2021-04-09 11:32:11,-1.14775138841221,37.1165541257761,-122.323318341519,2,1,0.5631641,78.87204,0.217466244437561,-0.0423301493810562,0.328695948654664
352644,2021-04-09 11:32:12,-1.17203994176478,37.1165540029356,-122.323318225086,2,1,0.5631641,78.87098,0.231125566642387,-0.0655300945159466,0.333697019849693
352645,2021-04-09 11:32:13,-1.12496774815005,37.1165538800951,-122.323318108653,2,1,0.5631641,79.24211,0.249868161020057,-0.0565937723532164,0.352265706942452
352646,2021-04-09 11:32:14,-1.10680732908945,37.1165537572546,-122.32331799222,2,1,0.5631641,79.11852,0.250506852889789,-0.0422760792719816,0.374996978164459
352647,2021-04-09 11:32:15,-1.13949307802968,37.1165536344141,-122.323317875787,2,1,0.5631641,79.36311,0.301863245833435,-0.0013904278001063,0.392042282937697
352648,2021-04-09 11:32:16,-1.1480056638148,37.1165535115736,-122.323317759354,2,1,0.5631641,79.87831,0.272494301536158,0.0233720571210281,0.342414066507963
352649,2021-04-09 11:32:17,-1.16603599680876,37.1165533887331,-122.32331764292,2,1,0.5631641,79.78546,0.701894787091222,-0.047252135257946,0.638015092696754
352650,2021-04-09 11:32:18,-1.1191363852547,37.1165532658926,-122.323317526487,2,1,0.5631641,80.00403,0.536543378919555,-0.0689390655268496,0.484458299770348
352651,2021-04-09 11:32:19,-1.17177503898938,37.1165531430521,-122.323317410054,2,1,0.5631641,80.31243,0.464930681250223,-0.0248251248721048,0.298773206986476
352652,2021-04-09 11:32:20,-1.1399964229562,37.1165530202116,-122.323317293621,2,1,0.5631641,80.07834,0.748678966138895,0.039502420004787,0.243791515597347
352653,2021-04-09 11:32:21,-1.15123115948174,37.1165528973711,-122.323317177188,2,1,0.5631641,80.17526,1.27344615997629,-0.341087271158782,0.458179216749571
352654,2021-04-09 11:32:22,-1.17270013466389,37.1165527745306,-122.323317060755,2,1,0.5631641,79.07394,1.10962165751356,-0.0741329736038889,0.233248518477778
352655,2021-04-09 11:32:23,-1.18748481491301,37.1165526516901,-122.323316944322,2,1,0.5631641,78.0605,1.07913742705123,-0.0231453570437535,0.190136900650831
352656,2021-04-09 11:32:24,-1.11330703755078,37.1165525288496,-122.323316827889,2,1,0.5631641,76.69833,1.10514023927706,-0.0578175197701555,0.16738256075903
352657,2021-04-09 11:32:25,-1.13785607673249,37.1165524060091,-122.323316711456,2,1,0.5631641,76.41153,1.08583168153259,-0.0390398774910511,0.20279739774078
352658,2021-04-09 11:32:26,-1.15533830524187,37.1165522831686,-122.323316595023,2,1,0.5631641,77.02082,1.07244549063165,-0.0657241002858824,0.207271785372333
352659,2021-04-09 11:32:27,-1.12709165944479,37.1165521603281,-122.32331647859,2,1,0.5631641,76.78946,1.10307684599364,-0.0775144235464638,0.207752135615251
352660,2021-04-09 11:32:28,-1.11377845918242,37.1165520374876,-122.323316362157,2,1,0.5631641,76.0874,1.11637093636208,-0.0915308876390181,0.220005313704296
352661,2021-04-09 11:32:29,-1.12186771594216,37.1165519146471,-122.323316245724,2,1,0.5631641,76.38342,1.0730565812218,-0.0640189928482813,0.204840818740498
352662,2021-04-09 11:32:30,-1.14010600162364,37.1165517917705,-122.323316129379,2,1,0.5631641,77.00113,1.08667938258995,-0.0777607352953874,0.211584131759197
352663,2021-04-09 11:32:31,-1.14438150892336,37.1165516690715,-122.3233160126,2,2,0.5631641,76.97028,1.10676790875217,-0.0988831669663052,0.213416410851679
352664,2021-04-09 11:32:32,-1.13796562538856,37.11655154574,-122.32331589736,2,2,0.5631641,75.39502,1.08586098163873,-0.0961259384002569,0.212043902705475
352665,2021-04-09 11:32:33,-1.1396293726051,37.1165514260166,-122.323315773464,2,2,0.5631641,74.02357,1.06315875496036,-0.07351436972273,0.204801922171809
352666,2021-04-09 11:32:34,-1.18315225857845,37.1165513149992,-122.323315628721,2,2,0.5631641,74.85917,1.0815846557098,-0.089733864646563,0.228754617617687
352667,2021-04-09 11:32:35,-1.15725043526017,37.1165512135721,-122.323315461003,2,2,0.5631641,76.55969,1.07706774377628,-0.0790482124268932,0.226594340189198
352668,2021-04-09 11:32:36,-1.12927444399346,37.1165511264575,-122.323315260592,2,2,0.5631641,77.38541,1.07319311026429,-0.0746281816605324,0.210477931780597
352669,2021-04-09 11:32:37,-1.14542215693514,37.1165510563794,-122.323315017521,2,2,0.5631641,76.32008,1.0919121155142,-0.0975365553046069,0.216538589402987
352670,2021-04-09 11:32:38,-1.12956154155834,37.1165510032144,-122.323314730111,2,2,0.5631641,75.9678,1.07454900803514,-0.0972574734020407,0.218341916325572
352671,2021-04-09 11:32:39,-1.12088676094998,37.1165509663185,-122.323314405173,2,2,0.5631641,77.57476,1.09229689396814,-0.0789927962977778,0.229188369245498
352672,2021-04-09 11:32:40,-1.14097255437116,37.1165509500102,-122.32331403517,2,2,0.5631641,78.34928,1.07822542472326,-0.0833252399226605,0.222348784009035
352673,2021-04-09 11:32:41,-1.11961675162018,37.1165509578421,-122.323313614438,2,2,0.5631641,78.45339,1.08990936452487,-0.085196293106625,0.218234114747067
352674,2021-04-09 11:32:42,-1.13309175427958,37.1165509890013,-122.323313133408,2,2,0.5631641,77.74933,1.08573128673338,-0.0991084251339987,0.213201123703515
352675,2021-04-09 11:32:43,-1.14107862118613,37.1165510442689,-122.323312583525,2,2,0.5631641,78.12914,1.1048482923199,-0.106655928649936,0.224591860774969
352676,2021-04-09 11:32:44,-1.13255323566347,37.1165511268759,-122.323311957221,2,2,0.5631641,78.52878,1.12022407655209,-0.113003315690227,0.236759060762677
352677,2021-04-09 11:32:45,-1.15743631504434,37.1165512438505,-122.323311249099,2,2,0.5631641,79.02267,1.07917661520258,-0.0834824617991189,0.211375886618069
352678,2021-04-09 11:32:46,-1.16369470764256,37.1165513984999,-122.323310454079,2,2,0.5631641,78.96346,1.09383464918649,-0.083636183151323,0.220886776531136
352679,2021-04-09 11:32:47,-1.18615413270699,37.1165515943114,-122.323309567883,2,2,0.5631641,78.86999,1.0728315728772,-0.0982655607191557,0.212325772198051
352680,2021-04-09 11:32:48,-1.11692582266117,37.1165518330213,-122.323308587079,2,2,0.5631641,79.13794,1.09843610689493,-0.104094466486934,0.2223815366295
352681,2021-04-09 11:32:49,-1.14868671281016,37.1165521071659,-122.323307502157,2,2,0.5631641,79.68198,1.10239301474421,-0.0815933394578056,0.206173542858497
352682,2021-04-09 11:32:50,-1.15988560777328,37.1165524169302,-122.323306310603,2,2,0.5631641,80.29211,1.10416508316953,-0.0893383474761686,0.223782213272745
352683,2021-04-09 11:32:51,-1.13309961539555,37.116552771276,-122.323305020867,2,2,0.5631641,80.75017,1.07667569049774,-0.091381900952586,0.209240782113859
352684,2021-04-09 11:32:52,-1.17718570282608,37.1165531778423,-122.323303643055,2,2,0.5631641,80.89519,1.08228569233437,-0.108174912844259,0.221468033022261
352685,2021-04-09 11:32:53,-1.15110130730506,37.1165536285837,-122.323302177567,2,2,0.5631641,80.59365,1.09502920761877,-0.107305804719744,0.230664854472544
352686,2021-04-09 11:32:54,-1.20608394309803,37.1165541147447,-122.323300625193,2,2,0.5631641,80.90551,1.08566654180629,-0.0884855840310929,0.219756642365414
352687,2021-04-09 11:32:55,-1.17011348238551,37.1165546188116,-122.323298989207,2,2,0.5631641,81.46302,1.09629354851608,-0.0901206708072781,0.217613557173539
352688,2021-04-09 11:32:56,-1.16812860401567,37.1165551525318,-122.323297293504,2,2,0.5631641,81.51449,1.08039108158524,-0.102457843896961,0.21256290667692
352689,2021-04-09 11:32:57,-1.13986513184909,37.116555719123,-122.323295557355,2,2,0.5631641,80.54511,1.08113317942365,-0.10701643533808,0.218855178825223
352690,2021-04-09 11:32:58,-1.09693546255114,37.1165562995966,-122.323293783679,2,2,32.35359,79.42183,1.06939382671648,-0.088777961102545,0.230694640422582
352691,2021-04-09 11:32:59,-1.1343831333085,37.1165569033816,-122.323291999545,2,2,53.98834,79.99944,1.05247296179235,-0.0929336429317183,0.225563249676546
352692,2021-04-09 11:33:00,-1.11219461963558,37.1165575112706,-122.323290214453,2,2,33.67699,77.94328,1.05113041647232,-0.0915974537781768,0.205497871569664
352693,2021-04-09 11:33:01,-1.13991293086744,37.1165580943833,-122.323288431718,2,2,37.0082,78.50703,1.07542993683572,-0.103236751252183,0.213820603788916
352694,2021-04-09 11:33:02,-1.14889391276771,37.1165586668178,-122.323286680825,2,2,29.35845,77.59233,1.08653223456372,-0.114476531524736,0.225786576511433
352695,2021-04-09 11:33:03,-1.15358230282632,37.1165592304709,-122.323284978931,2,2,0.734133,78.16304,1.07692693096307,-0.0954092834577092,0.215504644596366
352696,2021-04-09 11:33:04,-1.09499131164376,37.1165597492851,-122.323283321791,2,2,0.734133,78.91659,1.09919832888694,-0.0966396524466866,0.211456305082508
352697,2021-04-09 11:33:05,-1.12857246873416,37.1165602187991,-122.323281724037,2,2,0.734133,78.51908,1.089352660527,-0.100603127811271,0.213708583837357
352698,2021-04-09 11:33:06,-1.12583646378359,37.1165606677481,-122.323280217775,2,2,0.734133,80.69345,1.09057874633342,-0.112761200105781,0.217669327078136
352699,2021-04-09 11:33:07,-1.12186253664103,37.116561089541,-122.323278807945,2,2,0.734133,80.4114,1.08354539843468,-0.11596337109591,0.218941155328372
352700,2021-04-09 11:33:08,-1.12362418077952,37.1165614747399,-122.323277494944,2,2,0.734133,80.89639,1.05358130473857,-0.088998267478586,0.21100784811188
352701,2021-04-09 11:33:09,-1.12616209837551,37.1165618242859,-122.323276283013,2,2,0.734133,79.80835,1.08537547436955,-0.0920741190948702,0.232135799424172
352702,2021-04-09 11:33:10,-1.11692770818246,37.1165621273418,-122.323275169242,2,2,0.734133,79.86388,1.06555817207185,-0.0911397372727845,0.216485672691863
352703,2021-04-09 11:33:11,-1.16880189524976,37.1165623786639,-122.323274149903,2,2,0.734133,80.15628,1.08038046003301,-0.0956717350874683,0.216289620010881
352704,2021-04-09 11:33:12,-1.14574320156624,37.1165625961625,-122.323273234231,2,2,0.734133,79.91645,1.06863791594611,-0.104120819614963,0.206345587989587
352705,2021-04-09 11:33:13,-1.13024714408504,37.1165627760953,-122.323272415262,2,2,0.734133,78.72912,1.07578115345455,-0.111555900693769,0.2192416682286
352706,2021-04-09 11:33:14,-1.13652721625372,37.1165629137992,-122.323271682786,2,2,0.734133,78.04004,1.0718867563578,-0.0986670282625547,0.21487779132032
352707,2021-04-09 11:33:15,-1.13069661668945,37.1165630181373,-122.323271033876,2,2,0.734133,78.27863,1.05950272879825,-0.0947436040503475,0.220887983848277
352708,2021-04-09 11:33:16,-1.15569164555888,37.1165630912718,-122.323270462129,2,2,0.734133,77.90315,1.06643473679646,-0.0914450807291434,0.217722352935686
352709,2021-04-09 11:33:17,-1.12436535092061,37.1165631339297,-122.323269959176,2,2,0.734133,67.69913,1.08311590693529,-0.106925665538005,0.212781848264798
352710,2021-04-09 11:33:18,-1.16558111776478,37.1165631493304,-122.323269518037,2,2,0.734133,55.18464,1.0769975052464,-0.11631751545971,0.21918288044201
352711,2021-04-09 11:33:19,-1.14559721928854,37.1165631402028,-122.323269130775,2,2,0.734133,72.52195,1.08859739718934,-0.10429108244654,0.219005360299265
352712,2021-04-09 11:33:20,-1.17759854808383,37.1165631113759,-122.323268790952,2,2,0.734133,73.94408,1.07320563449875,-0.0933464177993251,0.218419092327231
352713,2021-04-09 11:33:21,-1.16642059818505,37.1165630655803,-122.323268492873,2,2,0.734133,74.59046,1.08374021327196,-0.0962350644145211,0.220663232781522
352714,2021-04-09 11:33:22,-1.16909892292277,37.116563005687,-122.323268228934,2,2,0.734133,69.21466,1.08242574134021,-0.0932567179920242,0.206608048288439
352715,2021-04-09 11:33:23,-1.14045284358106,37.1165629301163,-122.323267999616,2,2,0.734133,46.54063,1.09377233141522,-0.110089481611422,0.220111203192929
352716,2021-04-09 11:33:24,-1.16121259751819,37.116562840043,-122.32326780513,2,2,0.734133,53.98,1.05523030621481,-0.0857560326593313,0.208597544541699
352717,2021-04-09 11:33:25,-1.19143772368112,37.116562739462,-122.3232676368,2,2,0.734133,70.47757,1.07146691722825,-0.095848695228298,0.217426929332163
352718,2021-04-09 11:33:26,-1.12767933876464,37.1165626288279,-122.32326749179,2,2,0.734133,72.53652,1.05972061523532,-0.090515870152722,0.218890752038557
352719,2021-04-09 11:33:27,-1.11976764403442,37.1165625099636,-122.323267366149,2,2,0.734133,72.18514,1.07043136740661,-0.107812239319648,0.213115562598232
352720,2021-04-09 11:33:28,-1.16769482393939,37.1165623867409,-122.323267250603,2,2,0.734133,63.28939,1.0822621647239,-0.104179522449081,0.217198968849379
352721,2021-04-09 11:33:29,-1.12351939774126,37.1165622640117,-122.323267133906,2,2,0.734133,55.53515,1.09011089225774,-0.0958838953125589,0.219862085161741
352722,2021-04-09 11:33:30,-1.13788122238992,37.116562141141,-122.323267017545,2,2,0.734133,69.06795,1.10185628608866,-0.0972835499915705,0.217741784289118
352723,2021-04-09 11:33:31,-1.11535716890084,37.1165620183005,-122.323266901112,2,2,0.734133,70.84863,1.04940262773756,-0.0935337788717503,0.219526187087749
352724,2021-04-09 11:33:32,-1.15559242644662,37.1165618954599,-122.323266784679,2,2,0.734133,69.38691,1.09931289408645,-0.105338643774134,0.21319985026717
352725,2021-04-09 11:33:33,-1.14241108121575,37.1165617726194,-122.323266668246,2,2,0.734133,65.59698,1.0945637052898,-0.114532200491521,0.22255746058143
352726,2021-04-09 11:33:34,-1.1157113492822,37.1165616497788,-122.323266551813,2,2,0.734133,69.94972,1.07843075781816,-0.119630301238289,0.220504251800861
352727,2021-04-09 11:33:35,-1.1784874462666,37.1165615269383,-122.32326643538,2,2,0.734133,71.44705,1.08875920886921,-0.100525321455396,0.221544848624279
352728,2021-04-09 11:33:36,-1.18028466132064,37.1165614040977,-122.323266318947,2,2,0.734133,63.6983,1.07779236724595,-0.0919069776273777,0.221415402880238
352729,2021-04-09 11:33:37,-1.14761169363143,37.1165612812572,-122.323266202514,2,2,0.734133,53.94358,1.08631095768077,-0.0938867702329598,0.234810894930614
352730,2021-04-09 11:33:38,-1.13913522053524,37.1165611584166,-122.323266086081,2,1,0.734133,68.64365,1.08229746208944,-0.108046429125947,0.219914100714907
352731,2021-04-09 11:33:39,-1.10891517751011,37.1165610355761,-122.323265969648,2,1,0.734133,70.01139,1.08007347461847,-0.114215510254012,0.22068552091999
352732,2021-04-09 11:33:40,-1.20244294423647,37.1165609127355,-122.323265853215,2,1,0.734133,70.70773,1.06278875963047,-0.1132213009376,0.227181852616307
352733,2021-04-09 11:33:41,-1.16734185511759,37.116560789895,-122.323265736782,2,1,0.734133,63.22216,1.0701303235563,-0.106295210437053,0.236501354258111
352734,2021-04-09 11:33:42,-1.13376769973672,37.1165606670544,-122.323265620349,2,1,0.734133,53.54254,1.09431816615965,-0.0033919853433747,0.323236397280197
352735,2021-04-09 11:33:43,-1.1352322436273,37.1165605442139,-122.323265503916,2,1,0.734133,68.28216,1.05442673372922,0.0356710740543093,0.224682612166643
352736,2021-04-09 11:33:44,-1.16091918451555,37.1165604213733,-122.323265387483,2,1,0.734133,69.87799,1.57850724690139,-0.124805234926599,0.289716434676114
352737,2021-04-09 11:33:45,-1.11466262075593,37.1165602985328,-122.32326527105,2,1,0.734133,70.57223,1.57922063306899,-0.0093571723803685,0.180938708726378
352738,2021-04-09 11:33:46,-1.17554612742192,37.1165601756922,-122.323265154617,2,1,0.734133,62.75196,1.75692457606923,-0.162192855390746,0.284743254467347
352739,2021-04-09 11:33:47,-1.14166725908769,37.1165600528517,-122.323265038184,2,1,0.734133,52.94786,2.32363440916718,-0.399437241254708,0.154962950197252
352740,2021-04-09 11:33:48,-1.17140153750733,37.1165599300111,-122.323264921751,2,1,0.734133,68.73135,2.10957497301885,-0.142882163302778,0.21767299027792
352741,2021-04-09 11:33:49,-1.12192942217525,37.1165598071706,-122.323264805318,2,1,0.734133,71.13146,2.08572285990812,-0.132368348844537,0.199131156284591
352742,2021-04-09 11:33:50,-1.11174771482381,37.11655968433,-122.323264688885,2,1,0.734133,72.25779,2.10410920054083,-0.128232379908764,0.192112817978662
352743,2021-04-09 11:33:51,-1.08874601581193,37.1165595614895,-122.323264572452,2,1,0.734133,63.5282,2.08493238579198,-0.120123647124688,0.183338271968968
352744,2021-04-09 11:33:52,-1.13900748114628,37.1165594386489,-122.323264456019,2,1,0.734133,46.14078,2.14062763214094,-0.127778901249893,0.201836150452879
352745,2021-04-09 11:33:53,-1.17016467269539,37.1165593158084,-122.323264339586,2,1,0.734133,47.71475,2.15859344287272,-0.13301066564821,0.167060136655724
352746,2021-04-09 11:33:54,-1.12239919482707,37.1165591929678,-122.323264223153,2,1,0.734133,54.39929,2.15064846995192,-0.124717999635483,0.180408403742754
352747,2021-04-09 11:33:55,-1.18326824625273,37.1165590701273,-122.32326410672,2,1,0.734133,69.48307,2.19131337150401,-0.153097822298387,0.203279756061439
352748,2021-04-09 11:33:56,-1.13500026207859,37.1165589473408,-122.323263990378,2,1,0.734133,71.31021,2.15299176775886,-0.130273941224476,0.181108456079223
352749,2021-04-09 11:33:57,-1.13889453443305,37.1165588242813,-122.323263873576,2,1,0.734133,71.62486,2.22269690117464,-0.110092977486231,0.0457022168330277
352750,2021-04-09 11:33:58,-1.14868781232338,37.1165587021923,-122.323263758424,2,1,0.734133,69.14293,2.24869555059822,-0.131435111336805,0.0694358310121375
352751,2021-04-09 11:33:59,-1.13771328215031,37.1165585747218,-122.32326363411,2,1,0.734133,66.64971,2.18103646537024,-0.135094195889327,0.183268659377178
352752,2021-04-09 11:34:00,-1.13438714197455,37.1165584350028,-122.323263489601,2,1,0.734133,70.42056,2.18111452309696,-0.132072786877068,0.178520593050636
352753,2021-04-09 11:34:01,-1.12781091712801,37.1165582831052,-122.323263325827,2,1,0.734133,71.49318,2.2792794881893,-0.148398413824038,0.0500579773490031
352754,2021-04-09 11:34:02,-1.12580855606276,37.1165581128158,-122.323263130564,2,1,0.734133,71.44731,2.20285216394615,-0.110881572289152,0.0569186166722615
352755,2021-04-09 11:34:03,-1.15513806162774,37.1165579201183,-122.323262895306,2,1,0.734133,63.02099,2.22498102958328,-0.143293328362136,0.128599547254534
352756,2021-04-09 11:34:04,-1.16481923259876,37.1165576977822,-122.323262608554,-1,1,0.734133,54.77148,2.19864488144829,-0.140867240348468,0.160691478511189
352757,2021-04-09 11:34:05,-1.14469529155643,37.1165574373152,-122.323262257372,-1,1,0.734133,68.58515,2.20348734226164,-0.140968424862686,0.166559740780145
352758,2021-04-09 11:34:06,-1.15753161519363,37.1165571326851,-122.323261828249,-1,1,0.734133,68.68283,2.20142562431586,-0.141057226702916,0.16272742815296
352759,2021-04-09 11:34:07,-1.12439886153509,37.1165567719368,-122.323261305716,-1,2,0.734133,69.8328,2.20511280347393,-0.141993498379113,0.158410388890785
352760,2021-04-09 11:34:08,-1.13119287665297,37.1165563534435,-122.323260682547,-1,2,0.734133,61.56039,2.17560980810914,-0.140344494555194,0.167073785451804
352761,2021-04-09 11:34:09,-1.11467894226022,37.116555885268,-122.323259951995,-1,2,0.734133,52.038,2.16959528213294,-0.14257692984133,0.163621920154379
352762,2021-04-09 11:34:10,-1.10221451316832,37.1165553515941,-122.323259105015,-1,2,0.734133,67.30077,2.17993718985127,-0.143677187524067,0.161139156876908
352763,2021-04-09 11:34:11,-1.15691098012126,37.1165547351176,-122.323258137206,-1,2,0.734133,67.05098,2.21899360022237,-0.141773281861292,0.162929339065991
352764,2021-04-09 11:34:12,-1.09029666294887,37.1165540342749,-122.323257029282,-1,2,0.734133,67.43634,2.18916156750686,-0.144614535356441,0.168482757489193
352765,2021-04-09 11:34:13,-1.09531887940317,37.1165532487169,-122.323255761706,-1,2,0.734133,60.92866,2.18613087064861,-0.141907602604959,0.163126208760028
352766,2021-04-09 11:34:14,-1.12248442165012,37.1165523596077,-122.32325433334,-1,2,0.734133,53.17405,2.19928972794745,-0.140964002296801,0.163526309685241
352767,2021-04-09 11:34:15,-1.09614197725574,37.1165513668706,-122.32325272941,-1,2,0.734133,67.62711,2.19889653568449,-0.139719910926298,0.16507483312947
352768,2021-04-09 11:34:16,-1.12587488570419,37.1165502755659,-122.323250932055,-1,2,0.734133,68.85794,2.18280641710326,-0.137390712592526,0.16822351981209
352769,2021-04-09 11:34:17,-1.1467127392548,37.1165490743094,-122.323248943934,-2,2,0.734133,69.04127,2.18612896904354,-0.139375877126082,0.156141290949449
352770,2021-04-09 11:34:18,-1.10834579545586,37.1165477544777,-122.323246768655,-2,2,0.734133,67.68761,2.19959551233341,-0.138707793236615,0.159927768736459
352771,2021-04-09 11:34:19,-1.19386222598027,37.1165463505368,-122.323244377818,-2,2,0.734133,63.43713,2.16151044760168,-0.140513780361159,0.168183473970326
352772,2021-04-09 11:34:20,-1.15702554348429,37.1165448405479,-122.323241799326,-2,2,0.734133,67.58548,2.18121655251808,-0.13651465945563,0.169805802778618
352773,2021-04-09 11:34:21,-1.14125433416394,37.116543210449,-122.323239059398,-2,2,0.734133,69.78416,2.20274092877255,-0.142922567768982,0.166736427659595
352774,2021-04-09 11:34:22,-1.13119124449817,37.1165414989984,-122.323236144391,-2,2,0.734133,70.89286,2.18173625718729,-0.14632770032897,0.169675773823877
352775,2021-04-09 11:34:23,-1.13415351102042,37.116539711068,-122.323233074465,-2,2,0.734133,71.1686,2.18228613164409,-0.142141265280566,0.165503183949663
352776,2021-04-09 11:34:24,-1.11188923035951,37.1165378263305,-122.3232299002,-2,2,23.40567,69.96432,2.2062381507646,-0.143746970315908,0.16677630023962
352777,2021-04-09 11:34:25,-1.10725050084937,37.1165358604766,-122.323226644276,-2,2,58.47523,59.19378,2.19703190381108,-0.139231817221056,0.166347317116189
352778,2021-04-09 11:34:26,-1.13885374660642,37.1165338775556,-122.323223288242,-2,2,35.38455,50.89708,2.17262594094806,-0.14218326166981,0.170775425592495
352779,2021-04-09 11:34:27,-1.14235870313919,37.1165318652961,-122.323219889279,-2,2,30.29724,68.66859,2.18784423568868,-0.144216379787889,0.166830575679775
352780,2021-04-09 11:34:28,-1.1333294731357,37.1165298431457,-122.323216475914,-2,2,24.46186,66.71673,2.17983659937982,-0.141376757510603,0.168665640320704
352781,2021-04-09 11:34:29,-1.15347501013157,37.1165278403961,-122.323213066807,-2,2,12.79112,68.41379,2.20383064771153,-0.138017740890666,0.166604561407063
352782,2021-04-09 11:34:30,-1.1723851000537,37.1165258333636,-122.323209731493,-2,2,12.79112,65.59831,2.19072594193529,-0.138275601644613,0.170415185812697
352783,2021-04-09 11:34:31,-1.15988085858151,37.1165238569221,-122.323206481679,-2,2,12.79112,52.12183,2.19857440673504,-0.1427636359817,0.166478099578339
352784,2021-04-09 11:34:32,-1.14682123462275,37.1165219592495,-122.323203314834,-2,2,12.79112,61.87805,2.19735597896935,-0.137217054096085,0.167227969234169
352785,2021-04-09 11:34:33,-1.14064848336391,37.1165201472791,-122.323200261867,-2,2,5.199706,70.57202,2.18722125648206,-0.138352417748302,0.165083501237056
352786,2021-04-09 11:34:34,-1.15154205207635,37.1165183844108,-122.323197389224,-2,2,0.138761,69.06398,2.22963542690835,-0.140454572505231,0.1672009680914
352787,2021-04-09 11:34:35,-1.15861840168735,37.1165167151278,-122.323194682695,-2,2,0.138761,62.86751,2.174515683585,-0.1433359202684,0.169445705332824
352788,2021-04-09 11:34:36,-1.14204244378979,37.1165151711807,-122.323192133471,-2,2,0.138761,56.28131,2.19629514208519,-0.140061616674942,0.166118808604532
352789,2021-04-09 11:34:37,-1.14652214993709,37.1165137398538,-122.323189766638,-2,2,0.138761,61.50858,2.16605395164761,-0.135145048486048,0.168173087912831
352790,2021-04-09 11:34:38,-1.11114014781889,37.1165124273569,-122.323187584319,-2,2,0.138761,50.70289,2.18373039118178,-0.141761099572949,0.164942946653087
352791,2021-04-09 11:34:39,-1.13916223384245,37.1165112347981,-122.323185588239,-2,2,0.138761,48.4621,2.19112934076499,-0.142231246519581,0.169618294304979
352792,2021-04-09 11:34:40,-1.12628932039834,37.1165101524539,-122.323183783701,-2,2,0.138761,48.43048,2.19336789031565,-0.140211420227308,0.163287986787575
352793,2021-04-09 11:34:41,-1.18150402851837,37.1165091598496,-122.323182181219,-2,2,0.138761,49.82765,2.21171998128799,-0.142234809974898,0.166970802648679
352794,2021-04-09 11:34:42,-1.14235634923495,37.1165082584746,-122.323180766859,-2,2,0.138761,56.17489,2.20470929703286,-0.137459699977843,0.164226866293891
352795,2021-04-09 11:34:43,-1.12935085073656,37.1165074665154,-122.323179508302,-2,2,0.138761,63.49764,2.17708724469468,-0.140776544215267,0.166535024516905
352796,2021-04-09 11:34:44,-1.14595210067869,37.1165067720832,-122.323178398265,-2,2,0.138761,65.31296,2.18350614661168,-0.141893347061385,0.167453033643317
352797,2021-04-09 11:34:45,-1.1374934450386,37.1165061584121,-122.323177432174,-2,2,0.138761,59.99796,2.18562960528057,-0.138469588385542,0.166787174433617
352798,2021-04-09 11:34:46,-1.1303638512318,37.1165056161432,-122.323176597771,-2,2,0.138761,45.54218,2.20288984385535,-0.139335435758017,0.163686936791151
352799,2021-04-09 11:34:47,-1.11720295843565,37.1165051411583,-122.323175878359,-2,2,0.138761,45.34998,2.20466907817489,-0.140671636396832,0.167039292112421
352800,2021-04-09 11:34:48,-1.10878930142755,37.1165047254052,-122.323175258196,-2,2,0.138761,46.25968,2.1954814368538,-0.14321447778489,0.16587852471067
352801,2021-04-09 11:34:49,-1.13758868766065,37.1165043647035,-122.323174732121,-2,2,0.138761,46.52714,2.18706654197846,-0.139678448306563,0.170755992588532
352802,2021-04-09 11:34:50,-1.1516430191614,37.1165040549605,-122.323174291257,-2,2,0.138761,47.6119,2.21404572071857,-0.1425650849645,0.169593158921552
352803,2021-04-09 11:34:51,-1.1141122503201,37.1165037845434,-122.32317391969,-2,2,0.138761,48.02656,2.19361305263075,-0.143187926392776,0.170221107386852
352804,2021-04-09 11:34:52,-1.13221657709726,37.1165035511973,-122.323173608574,-2,2,0.138761,46.53391,2.16037522671452,-0.138012204923202,0.167375943546677
352805,2021-04-09 11:34:53,-1.12379789420223,37.1165033464187,-122.32317334944,-2,2,0.138761,46.28867,2.20996226536665,-0.143478482685985,0.167735632561429
352806,2021-04-09 11:34:54,-1.12024886479037,37.1165031660337,-122.323173134405,-2,2,0.138761,46.74187,2.19158694132198,-0.138708905937647,0.169314873432928
352807,2021-04-09 11:34:55,-1.13315660649326,37.1165030068713,-122.32317295553,-2,2,0.138761,47.55037,2.199330096708,-0.144384360591174,0.167488326608562
352808,2021-04-09 11:34:56,-1.10937931252977,37.1165028641477,-122.323172805005,-2,2,0.138761,47.3661,2.19846214154109,-0.14335049023054,0.169091726649677
352809,2021-04-09 11:34:57,-1.17109230554192,37.1165027352891,-122.323172678127,-2,2,0.138761,47.71706,2.19238600033699,-0.138278085857453,0.168655679281865
352810,2021-04-09 11:34:58,-1.15349661135405,37.1165026130131,-122.32317256268,-2,2,0.138761,48.37292,2.16793809832096,-0.138388979516367,0.169002879320074
352811,2021-04-09 11:34:59,-1.1225351701114,37.1165024900012,-122.323172445957,-2,2,0.138761,48.3375,2.20174497111286,-0.142034828750545,0.17024966636901
352812,2021-04-09 11:35:00,-1.14463208702929,37.1165023672092,-122.323172329605,-2,2,0.138761,48.32852,2.19814601329457,-0.141154809695508,0.166093046304375
352813,2021-04-09 11:35:01,-1.10312275675378,37.1165022443685,-122.323172213172,-2,2,0.138761,48.17206,2.20618001411344,-0.137770449037475,0.170498888327429
352814,2021-04-09 11:35:02,-1.15242137055588,37.1165021215279,-122.323172096739,-2,2,0.138761,51.51185,2.18210772874416,-0.137870505968236,0.167764800110541
352815,2021-04-09 11:35:03,-1.15132624695007,37.1165019986872,-122.323171980307,-2,2,0.138761,55.70188,2.23100114770359,-0.13691284121425,0.168172603637885
352816,2021-04-09 11:35:04,-1.12968556092485,37.1165018758466,-122.323171863874,-2,2,0.138761,48.48156,2.217761719384,-0.144258209810121,0.168790067128403
352817,2021-04-09 11:35:05,-1.11610097606527,37.1165017530059,-122.323171747441,-2,2,0.138761,48.11967,2.17972478850808,-0.140470306286992,0.165625127961314
352818,2021-04-09 11:35:06,-1.15537808439528,37.1165016301653,-122.323171631008,-2,2,0.138761,47.77542,2.1755782512505,-0.137912757912367,0.169733228867397
352819,2021-04-09 11:35:07,-1.12890603980415,37.1165015073247,-122.323171514576,-2,2,0.138761,48.55606,2.18459086552176,-0.140718107792983,0.165829834498856
352820,2021-04-09 11:35:08,-1.1223982246309,37.116501384484,-122.323171398143,-2,2,0.138761,48.42492,2.15818208384303,-0.140595548678649,0.169022953131885
352821,2021-04-09 11:35:09,-1.13389471989592,37.1165012616434,-122.32317128171,-2,2,0.138761,48.07637,2.20646547276959,-0.141708965969362,0.162621920062142
352822,2021-04-09 11:35:10,-1.13492548559757,37.1165011388027,-122.323171165278,-2,2,0.138761,51.64458,2.17178777166093,-0.140588453183849,0.165441667148391
352823,2021-04-09 11:35:11,-1.13350813145654,37.1165010159621,-122.323171048845,-2,2,0.138761,55.17313,2.19664738145582,-0.140933879895039,0.169454425686697
352824,2021-04-09 11:35:12,-1.126190118635,37.1165008931215,-122.323170932412,-2,2,0.138761,48.07172,2.18551868284287,-0.140935376541212,0.165225008466487
352825,2021-04-09 11:35:13,-1.1116689213095,37.1165007702808,-122.323170815979,-2,2,0.138761,51.16381,2.18475465841521,-0.13999013484736,0.161652256062812
352826,2021-04-09 11:35:14,-1.12191433989541,37.1165006474402,-122.323170699547,-2,2,0.138761,60.44189,2.16044460966524,-0.139821146989685,0.169100797471242
352827,2021-04-09 11:35:15,-1.07877233936726,37.1165005245995,-122.323170583114,-2,2,0.138761,67.43521,2.1673364743143,-0.13889710562903,0.166122218627009
352828,2021-04-09 11:35:16,-1.08157111933379,37.1165004017589,-122.323170466681,-2,2,0.138761,61.13351,2.18653665302309,-0.138105413374511,0.167118591793598
352829,2021-04-09 11:35:17,-1.13112236819431,37.1165002789182,-122.323170350248,-2,2,0.138761,54.30012,2.17549514740473,-0.140940622545722,0.169057574057939
352830,2021-04-09 11:35:18,-1.12986825712903,37.1165001560776,-122.323170233816,-2,2,0.138761,65.65011,2.18006166233797,-0.141063705978119,0.168318613922117
352831,2021-04-09 11:35:19,-1.07333216698679,37.116500033237,-122.323170117383,-2,2,0.138761,67.8022,2.21525030919625,-0.139877983649504,0.169936703971713
352832,2021-04-09 11:35:20,-1.17432332295215,37.1164999103963,-122.32317000095,-2,2,0.138761,68.93208,2.19650771438825,-0.141924676876088,0.168922597216828
352833,2021-04-09 11:35:21,-1.16626962616098,37.1164997875557,-122.323169884517,-2,2,0.138761,68.57797,2.17616857628876,-0.134683295199695,0.161956477586271
352834,2021-04-09 11:35:22,-1.153258338109,37.116499664715,-122.323169768085,-2,2,0.138761,68.69958,2.16747540899535,-0.14264854641534,0.180104407990473
352835,2021-04-09 11:35:23,-1.13091154197919,37.1164995418744,-122.323169651652,-2,2,0.138761,68.78122,2.17106793186176,-0.136551302806493,0.157804943099514
352836,2021-04-09 11:35:24,-1.12538163997165,37.1164994190337,-122.323169535219,-2,2,0.138761,70.224,2.20668320285465,-0.139249672862244,0.164006031389909
352837,2021-04-09 11:35:25,-1.17125452461007,37.1164992961931,-122.323169418787,-2,2,0.138761,68.1417,2.18830249986798,-0.137956005208052,0.161084574144149
352838,2021-04-09 11:35:26,-1.14466631583953,37.1164991733524,-122.323169302354,-2,2,0.138761,70.16038,2.17189327963571,-0.143814883136131,0.158643400636777
352839,2021-04-09 11:35:27,-1.15474512958046,37.1164990505118,-122.323169185921,-2,2,0.138761,65.45113,2.18438111901107,-0.142338740244457,0.163305908845853
352840,2021-04-09 11:35:28,-1.14244315291725,37.1164989276712,-122.323169069488,-2,2,0.138761,55.09026,2.17644817174296,-0.139581968230618,0.162697623139048
352841,2021-04-09 11:35:29,-1.11357641484485,37.1164988048305,-122.323168953056,-2,2,0.138761,52.21295,2.1789213884653,-0.136880484765174,0.160205730926575
352842,2021-04-09 11:35:30,-1.1379507975931,37.1164986819899,-122.323168836623,-2,2,0.138761,60.3862,2.18208311424085,-0.139151141588258,0.159422292474046
352843,2021-04-09 11:35:31,-1.13121937355201,37.1164985591492,-122.32316872019,-2,2,0.138761,63.89227,2.18224038140279,-0.136811007954033,0.162852320516436
352844,2021-04-09 11:35:32,-1.13751681869448,37.1164984363086,-122.323168603757,-2,2,0.138761,67.38142,2.18783223812847,-0.137602517264877,0.161723339239672
352845,2021-04-09 11:35:33,-1.1094449714788,37.1164983134679,-122.323168487325,-2,2,0.138761,66.56692,2.17349703673073,-0.138747270022767,0.159721443022643
352846,2021-04-09 11:35:34,-1.1000482412002,37.1164981906273,-122.323168370892,-2,2,0.138761,68.04299,2.17086352573097,-0.133621190874383,0.161286085216297
352847,2021-04-09 11:35:35,-1.12454879828334,37.1164980677866,-122.323168254459,-2,2,0.138761,67.95375,2.14462411052981,-0.134849438292137,0.164332454946554
352848,2021-04-09 11:35:36,-1.18987817992266,37.116497944946,-122.323168138026,-2,2,0.138761,64.90565,2.17868671832827,-0.138497688390239,0.163575283910363
352849,2021-04-09 11:35:37,-1.11853761939328,37.1164978221054,-122.323168021594,-2,2,0.138761,59.90088,2.19239678836851,-0.138570649777548,0.166718338555095
352850,2021-04-09 11:35:38,-1.16097450665166,37.1164976992647,-122.323167905161,-2,2,0.138761,58.95562,2.17150610471512,-0.136854989538298,0.164800153379382
352851,2021-04-09 11:35:39,-1.18145601040239,37.1164975764241,-122.323167788728,-2,4,0.138761,65.611,2.18086797973201,-0.140987434299639,0.167376313487565
352852,2021-04-09 11:35:40,-1.14381623910149,37.1164974535834,-122.323167672296,-2,4,0.138761,68.00295,2.18214765472177,-0.141157702798683,0.162108071214978
352853,2021-04-09 11:35:41,-1.13653538118131,37.1164973307428,-122.323167555863,-2,4,0.138761,67.95009,2.15273598349551,-0.13909571531134,0.165150154966172
352854,2021-04-09 11:35:42,-1.17528066618011,37.1164972079021,-122.32316743943,-2,4,0.138761,60.39055,2.18193942258598,-0.139288897362758,0.165428458694074
352855,2021-04-09 11:35:43,-1.07492974448827,37.1164970850615,-122.323167322997,-2,4,0.138761,49.27002,2.15093659781437,-0.137892587763144,0.163131444589392
352856,2021-04-09 11:35:44,-1.12725561377594,37.1164969622208,-122.323167206565,-2,4,0.138761,48.68312,2.16033888182606,-0.140437793861445,0.162606096389327
352857,2021-04-09 11:35:45,-1.12991118992566,37.1164968393802,-122.323167090132,-2,4,0.138761,51.98672,2.18074554861556,-0.140715255588319,0.163000936725967
352858,2021-04-09 11:35:46,-1.10787544721589,37.1164967165395,-122.323166973699,-2,4,0.138761,60.07071,2.15385503923594,-0.141271148365801,0.167006399032668
352859,2021-04-09 11:35:47,-1.16308284590387,37.1164965936989,-122.323166857266,-2,4,0.138761,61.41072,2.15392254644527,-0.138810454181574,0.165631552537701
352860,2021-04-09 11:35:48,-1.11567771127496,37.1164964708582,-122.323166740834,-2,4,0.138761,49.27752,2.15886460547361,-0.138706252674087,0.170188236931402
352861,2021-04-09 11:35:49,-1.16299431557709,37.1164963480176,-122.323166624401,-2,4,0.138761,54.28799,2.13751921991833,-0.138251947870476,0.163111553084937
352862,2021-04-09 11:35:50,-1.13780485976912,37.1164962251769,-122.323166507968,-2,4,0.138761,64.78925,2.17690969179714,-0.14488439788407,0.164854696466107
352863,2021-04-09 11:35:51,-1.15451927830819,37.1164961023363,-122.323166391536,-2,4,0.138761,57.5085,2.15483110135458,-0.138084294569,0.16504647908437
352864,2021-04-09 11:35:52,-1.12400044819192,37.1164959794956,-122.323166275103,-2,4,0.138761,50.095,2.1728390046159,-0.141132124814144,0.159931812882615
352865,2021-04-09 11:35:53,-1.15224487536237,37.116495856655,-122.32316615867,-2,4,0.138761,55.6445,2.18381653901433,-0.142446042406667,0.164715064767388
352866,2021-04-09 11:35:54,-1.11436734753124,37.1164957338144,-122.323166042237,-2,4,0.138761,67.62743,2.1641468937426,-0.139642434375125,0.170893702755117
352867,2021-04-09 11:35:55,-1.11162591718541,37.1164956109737,-122.323165925805,-2,4,0.138761,60.0227,2.18526211079216,-0.14123273529378,0.165527590847934
352868,2021-04-09 11:35:56,-1.12718393658554,37.1164954881331,-122.323165809372,-2,4,0.138761,48.46868,2.19224458954137,-0.139127046562997,0.162013588708496
352869,2021-04-09 11:35:57,-1.09177175537929,37.1164953652924,-122.323165692939,-2,4,0.138761,48.83337,2.19836505060927,-0.140180671861656,0.162599453758695
352870,2021-04-09 11:35:58,-1.16857250259647,37.1164952424518,-122.323165576507,-2,4,0.138761,54.17228,2.17296732255955,-0.142606616005181,0.163714643009485
352871,2021-04-09 11:35:59,-1.11489256324127,37.1164951196111,-122.323165460074,-2,4,0.138761,58.02051,2.15896709486525,-0.140533809026437,0.169378604442873
352872,2021-04-09 11:36:00,-1.12016404134872,37.1164949967705,-122.323165343641,-2,4,0.138761,47.38696,2.16734689384706,-0.142961773604686,0.161421605308149
352873,2021-04-09 11:36:01,-1.10872463498854,37.1164948739298,-122.323165227208,-2,4,0.138761,53.0811,2.16596204042063,-0.136983598673929,0.166349270310899
352874,2021-04-09 11:36:02,-1.10783195055029,37.1164947510892,-122.323165110776,-2,4,0.138761,57.70494,2.14141160772642,-0.137535781947199,0.166077387104489
352875,2021-04-09 11:36:03,-1.15099163933514,37.1164946282485,-122.323164994343,-2,4,0.138761,45.04032,2.15883402477168,-0.139258984952443,0.165218861539056
352876,2021-04-09 11:36:04,-1.10958200017252,37.1164945054079,-122.32316487791,-2,4,0.138761,46.00815,2.155819100905,-0.140584108617788,0.164043751424909
352877,2021-04-09 11:36:05,-1.09361057469372,37.1164943825672,-122.323164761477,-2,4,0.138761,48.08951,2.14179889178239,-0.138157983332219,0.16556283768777
352878,2021-04-09 11:36:06,-1.16430282065318,37.1164942597266,-122.323164645045,-2,4,0.138761,48.92441,2.16731451224827,-0.139848437810032,0.163632979869296
352879,2021-04-09 11:36:07,-1.08777012686565,37.1164941368859,-122.323164528612,-2,4,0.138761,49.45088,2.15512292661169,-0.138259186901826,0.166078265381613
352880,2021-04-09 11:36:08,-1.14357825441638,37.1164940140453,-122.323164412179,-2,4,0.138761,51.84657,2.15637680128424,-0.135963800137754,0.159691362364272
352881,2021-04-09 11:36:09,-1.10833565526751,37.1164938912046,-122.323164295747,-2,4,0.138761,56.67746,2.15416674704471,-0.136178005407878,0.166941709658831
352882,2021-04-09 11:36:10,-1.13572282021057,37.116493768364,-122.323164179314,-2,4,0.138761,52.27248,2.14557015074591,-0.139547122086921,0.166778662717116
352883,2021-04-09 11:36:11,-1.11161807174732,37.1164936455233,-122.323164062881,-2,4,0.138761,51.74185,2.16506492304283,-0.139298315248869,0.159159711831969
352884,2021-04-09 11:36:12,-1.15436456265968,37.1164935226827,-122.323163946448,-2,4,0.138761,51.4361,2.15015947605034,-0.135668973949641,0.161412402921701
352885,2021-04-09 11:36:13,-1.09646663596972,37.116493399842,-122.323163830016,-2,4,0.138761,51.84243,2.16446366278642,-0.138357113617325,0.161652317492675
352886,2021-04-09 11:36:14,-1.12540011665104,37.1164932770014,-122.323163713583,-2,4,0.138761,53.64472,2.15742064975515,-0.138592246859753,0.164902635423093
352887,2021-04-09 11:36:15,-1.09917281242149,37.1164931541607,-122.32316359715,-2,4,0.138761,63.58332,2.16484527589447,-0.140052616662904,0.161234318168792
352888,2021-04-09 11:36:16,-1.17223769646474,37.1164930313201,-122.323163480718,-2,4,0.138761,61.55585,2.14387308417253,-0.136963450816555,0.165269141593617
352889,2021-04-09 11:36:17,-1.1255898818893,37.1164929084794,-122.323163364285,-2,4,0.138761,55.26933,2.18709930697295,-0.1426097892131,0.159828562263179
352890,2021-04-09 11:36:18,-1.08442072058718,37.1164927856388,-122.323163247852,-2,4,0.138761,66.32221,2.18254333607782,-0.141515172067833,0.159234427789407
352891,2021-04-09 11:36:19,-1.14913844668766,37.1164926627981,-122.323163131419,-2,4,0.138761,66.9117,2.17332351736183,-0.140287366982534,0.158576040482115
352892,2021-04-09 11:36:20,-1.14013252810459,37.1164925399575,-122.323163014987,-2,4,0.138761,65.01216,2.15998571532446,-0.137133143681114,0.163889946562671
352893,2021-04-09 11:36:21,-1.11538231653546,37.1164924171168,-122.323162898554,-2,4,0.138761,62.08803,2.15190377988583,-0.136239360635694,0.165776540605864
352894,2021-04-09 11:36:22,-1.09882698776268,37.1164922942762,-122.323162782121,-2,4,0.138761,65.94647,2.20818906500478,-0.144408559679937,0.168387797783664
352895,2021-04-09 11:36:23,-1.12799928947942,37.1164921714355,-122.323162665689,-2,4,0.138761,64.57569,2.16415773138043,-0.136847190394101,0.163284564076613
352896,2021-04-09 11:36:24,-1.10353155932114,37.1164920485949,-122.323162549256,-2,4,0.138761,56.67943,2.17131369833138,-0.139992741022558,0.169842349394816
352897,2021-04-09 11:36:25,-1.10684220453316,37.1164919257542,-122.323162432823,-2,4,0.138761,55.01251,2.17394878394855,-0.139186175803112,0.16420461693147
352898,2021-04-09 11:36:26,-1.14837311816708,37.1164918029136,-122.32316231639,-2,4,0.138761,64.1516,2.20736652224169,-0.143909632702841,0.16416005304657
352899,2021-04-09 11:36:27,-1.16145429082188,37.1164916800729,-122.323162199958,-2,4,0.138761,61.08433,2.14462635251394,-0.141313642402111,0.167716555151802
352900,2021-04-09 11:36:28,-1.14947537157345,37.1164915572323,-122.323162083525,-2,4,0.138761,58.35471,2.15535343984124,-0.141659390785046,0.168620282354124
352901,2021-04-09 11:36:29,-1.14028445610204,37.1164914343916,-122.323161967092,-2,4,0.138761,64.07312,2.18137575340741,-0.140253768742257,0.162483434343762
352902,2021-04-09 11:36:30,-1.15156536786166,37.116491311551,-122.32316185066,-2,4,0.138761,67.77881,2.18325293193326,-0.140165931019191,0.158544266694017
352903,2021-04-09 11:36:31,-1.12741819855557,37.1164911887103,-122.323161734227,-2,4,0.138761,61.84026,2.17432872196718,-0.139004083911445,0.166648277721321
352904,2021-04-09 11:36:32,-1.14575443541915,37.1164910658697,-122.323161617794,-2,4,0.138761,51.17612,2.15130347553669,-0.137810421625041,0.163579515142075
352905,2021-04-09 11:36:33,-1.10474717348248,37.116490943029,-122.323161501362,-2,4,0.138761,57.13981,2.1531763394438,-0.140318053577913,0.166135394944265
352906,2021-04-09 11:36:34,-1.13005672089764,37.1164908201884,-122.323161384929,-2,4,0.138761,55.78615,2.16542093725277,-0.13924504884983,0.161370475761003
352907,2021-04-09 11:36:35,-1.13733221441882,37.1164906973477,-122.323161268496,-2,4,0.138761,53.95739,2.17162569665285,-0.141371044516337,0.164177512460577
352908,2021-04-09 11:36:36,-1.12883776752512,37.1164905745071,-122.323161152063,-2,4,0.138761,62.82032,2.17467954986869,-0.139273745636032,0.160101584653055
352909,2021-04-09 11:36:37,-1.148343119529,37.1164904516664,-122.323161035631,-2,4,0.138761,59.86756,2.16021549941462,-0.139329720351961,0.164355611215711
352910,2021-04-09 11:36:38,-1.11535179801918,37.1164903288258,-122.323160919198,-2,4,0.138761,53.79616,2.14546685173333,-0.138028114593548,0.164436459794537
352911,2021-04-09 11:36:39,-1.13738195963951,37.1164902059851,-122.323160802765,-2,4,0.138761,57.45735,2.18395340261162,-0.145976696797519,0.166123854504333
352912,2021-04-09 11:36:40,-1.12492261443834,37.1164900831445,-122.323160686333,-2,4,0.138761,53.60392,2.16395997148613,-0.140387137276534,0.16593280686469
352913,2021-04-09 11:36:41,-1.13128285960811,37.1164899603038,-122.3231605699,-2,4,0.138761,64.8449,2.18016553727726,-0.139103064586337,0.162965878639786
352914,2021-04-09 11:36:42,-1.13548561861626,37.1164898374631,-122.323160453467,-2,4,0.138761,65.32864,2.1866186006043,-0.143054184623828,0.166689711172584
352915,2021-04-09 11:36:43,-1.09816535457483,37.1164897146225,-122.323160337034,-2,4,0.138761,65.82914,2.18989292099639,-0.140806048620638,0.164916698633429
352916,2021-04-09 11:36:44,-1.13741341621182,37.1164895917818,-122.323160220602,-2,4,0.138761,63.16978,2.18416195530698,-0.14271484474795,0.164432597676445
352917,2021-04-09 11:36:45,-1.10255083250658,37.1164894689412,-122.323160104169,-2,4,0.138761,57.72587,2.17908647283801,-0.137467764712356,0.161768091694356
352918,2021-04-09 11:36:46,-1.15618827449361,37.1164893461005,-122.323159987736,-2,4,0.138761,59.13952,2.19011010168689,-0.141215415950302,0.165590108662975
352919,2021-04-09 11:36:47,-1.12962863413285,37.1164892232599,-122.323159871304,-2,4,0.138761,56.48736,2.18998136599024,-0.147740016891816,0.168644516761637
352920,2021-04-09 11:36:48,-1.12369411929722,37.1164891004192,-122.323159754871,-2,4,0.138761,61.48856,2.18710712932792,-0.138651681461052,0.162980541040594
352921,2021-04-09 11:36:49,-1.15798385602285,37.1164889775786,-122.323159638438,-2,4,0.138761,57.8283,2.16565055550107,-0.142929134053162,0.165868706083955
352922,2021-04-09 11:36:50,-1.08422266035393,37.1164888547379,-122.323159522006,-2,4,0.138761,61.3833,2.18491326824705,-0.139488164284364,0.160712522483921
352923,2021-04-09 11:36:51,-1.1066164584459,37.1164887318973,-122.323159405573,-2,4,0.138761,55.93498,2.20270587971767,-0.141504117529369,0.161793550421794
352924,2021-04-09 11:36:52,-1.07861395744633,37.1164886090566,-122.32315928914,-2,4,0.138761,52.21614,2.19365292823581,-0.143354863438242,0.164299821446099
352925,2021-04-09 11:36:53,-1.08786144791953,37.116488486216,-122.323159172707,-2,4,0.138761,62.40603,2.17106411010705,-0.14229868910009,0.166150143246283
352926,2021-04-09 11:36:54,-1.14953638513641,37.1164883633753,-122.323159056275,-2,4,0.138761,66.59332,2.20265717280795,-0.14253513669899,0.165849047817612
352927,2021-04-09 11:36:55,-1.11998876987181,37.1164882405346,-122.323158939842,-2,4,0.138761,65.04156,2.1995088297754,-0.144918997684041,0.164533098023248
352928,2021-04-09 11:36:56,-1.12475064925973,37.116488117694,-122.323158823409,-2,4,0.138761,60.31807,2.19176921841423,-0.142328541484468,0.16169938662739
352929,2021-04-09 11:36:57,-1.16534609632564,37.1164879948533,-122.323158706977,-2,4,0.138761,51.58057,2.15888667776126,-0.142182602350216,0.161039125051913
352930,2021-04-09 11:36:58,-1.17893809730832,37.1164878720127,-122.323158590544,-2,4,0.138761,59.51584,2.17193857637239,-0.14064955876633,0.163250462302891
352931,2021-04-09 11:36:59,-1.1425778089692,37.116487749172,-122.323158474111,-2,4,0.138761,57.19551,2.17164520041553,-0.137799571363558,0.161458660229161
352932,2021-04-09 11:37:00,-1.15821032485933,37.1164876263314,-122.323158357679,-2,4,0.138761,49.04782,2.18471113543786,-0.140143908839317,0.158971918822059
352933,2021-04-09 11:37:01,-1.12102481619005,37.1164875034907,-122.323158241246,-2,4,0.138761,49.13363,2.21437511587531,-0.14349599669274,0.162941621314536
352934,2021-04-09 11:37:02,-1.09936893975515,37.1164873806501,-122.323158124813,-2,4,0.138761,48.53708,2.17925458454339,-0.139905279167621,0.159813900933475
352935,2021-04-09 11:37:03,-1.1331657315895,37.1164872578094,-122.32315800838,-2,4,0.138761,52.37402,2.1888652365447,-0.141385386639738,0.158343127861654
352936,2021-04-09 11:37:04,-1.13863605260077,37.1164871349688,-122.323157891948,-2,4,0.138761,64.65232,2.16481963427721,-0.142753993212532,0.169206060089926
352937,2021-04-09 11:37:05,-1.13446761284377,37.1164870121281,-122.323157775515,-2,4,0.138761,66.57284,2.18663250868974,-0.140665798181672,0.165480231982546
352938,2021-04-09 11:37:06,-1.12607966798241,37.1164868892874,-122.323157659082,-2,4,0.138761,58.94006,2.18057971130032,-0.137981712149781,0.160384181630557
352939,2021-04-09 11:37:07,-1.12100253502304,37.1164867664468,-122.32315754265,-2,4,0.138761,54.81481,2.16785963384736,-0.139003170100033,0.160139791981804
352940,2021-04-09 11:37:08,-1.08894384855773,37.1164866436061,-122.323157426217,-2,4,0.138761,67.17487,2.18722616712111,-0.143411066922748,0.164688104193926
352941,2021-04-09 11:37:09,-1.13100669039847,37.1164865207655,-122.323157309784,-2,4,0.138761,66.15088,2.18843915402111,-0.140532278935373,0.160485576208577
352942,2021-04-09 11:37:10,-1.11392243378425,37.1164863979248,-122.323157193352,-2,4,0.138761,62.73119,2.16781804083073,-0.141982880811925,0.162801687808246
352943,2021-04-09 11:37:11,-1.10400172571977,37.1164862750842,-122.323157076919,-2,4,0.138761,58.23587,2.16576879301911,-0.138910426703391,0.163525913233081
352944,2021-04-09 11:37:12,-1.1416118289534,37.1164861522435,-122.323156960486,-2,4,0.138761,66.63415,2.18592234617296,-0.140460182477931,0.160922584765001
352945,2021-04-09 11:37:13,-1.1477706354223,37.1164860294028,-122.323156844054,-2,4,0.138761,65.1149,2.16678125475349,-0.139990084585399,0.163188884954094
352946,2021-04-09 11:37:14,-1.13065773245927,37.1164859065622,-122.323156727621,-2,4,0.138761,63.73584,2.17584931875508,-0.142968070293718,0.156357576071043
352947,2021-04-09 11:37:15,-1.13535254004222,37.1164857837215,-122.323156611188,-2,4,0.138761,58.73032,2.1782613522997,-0.140438599971292,0.163741706724196
352948,2021-04-09 11:37:16,-1.12316378248729,37.1164856608809,-122.323156494755,-2,5,0.138761,53.73789,2.17241598900188,-0.137707143494465,0.161068610387812
352949,2021-04-09 11:37:17,-1.16310313110258,37.1164855380402,-122.323156378323,-2,5,0.138761,62.56465,2.16589066649048,-0.14106652006701,0.160301117485954
352950,2021-04-09 11:37:18,-1.1157834391582,37.1164854151996,-122.32315626189,-2,5,0.138761,61.63582,2.16365634764941,-0.137552754953814,0.154967023312975
352951,2021-04-09 11:37:19,-1.10523596149703,37.1164852923589,-122.323156145457,-2,5,0.138761,49.19095,2.20756216007393,-0.142564754830751,0.166060140448683
352952,2021-04-09 11:37:20,-1.0732513667566,37.1164851695183,-122.323156029025,-2,5,0.138761,53.63514,2.18605133624538,-0.137848693902641,0.165735351997818
352953,2021-04-09 11:37:21,-1.14507566568331,37.1164850466776,-122.323155912592,-2,5,0.138761,57.43307,2.18723829648258,-0.137670330880619,0.160262984178639
352954,2021-04-09 11:37:22,-1.18648828983541,37.1164849238369,-122.323155796159,-2,5,0.138761,49.52327,2.16966326047378,-0.14059078119585,0.162429907702533
352955,2021-04-09 11:37:23,-1.12562735447578,37.1164848009963,-122.323155679727,-2,5,0.138761,51.18674,2.20389041667999,-0.140323053625359,0.163300882050948
352956,2021-04-09 11:37:24,-1.17306189755532,37.1164846781556,-122.323155563294,-2,5,0.138761,61.42561,2.16901229142381,-0.14070195189858,0.164630423476031
352957,2021-04-09 11:37:25,-1.14421369472364,37.116484555315,-122.323155446861,-2,5,0.138761,69.64638,2.16903881962524,-0.143011105416629,0.15975788478749
352958,2021-04-09 11:37:26,-1.15498511060672,37.1164844324743,-122.323155330429,-2,5,0.138761,69.96155,2.17854584273624,-0.141615399081377,0.165590843695791
352959,2021-04-09 11:37:27,-1.1148315269796,37.1164843096337,-122.323155213996,-2,5,0.138761,69.02278,2.16658340879145,-0.139520902009416,0.161999114386878
352960,2021-04-09 11:37:28,-1.14332578715369,37.116484186793,-122.323155097563,-2,5,0.138761,66.79205,2.16044917972421,-0.139071647225761,0.164180236386171
352961,2021-04-09 11:37:29,-1.08115283294965,37.1164840639523,-122.323154981131,-2,5,0.138761,65.67882,2.17677619808139,-0.141316603419762,0.159912195457894
352962,2021-04-09 11:37:30,-1.10776381284289,37.1164839411117,-122.323154864698,-2,5,0.138761,65.59496,2.20312656046413,-0.142023513146531,0.163483165056851
352963,2021-04-09 11:37:31,-1.14751847680327,37.116483818271,-122.323154748265,-2,5,0.138761,60.55479,2.16217286788217,-0.138504933462485,0.16905379685044
352964,2021-04-09 11:37:32,-1.11594428779227,37.1164836954304,-122.323154631832,-2,5,0.138761,48.70684,2.15897365924459,-0.143504996111593,0.163224930329092
352965,2021-04-09 11:37:33,-1.130788738905,37.1164835725897,-122.3231545154,-2,5,0.138761,52.15421,2.17352694947439,-0.14099445217414,0.162360130493577
352966,2021-04-09 11:37:34,-1.12476520505291,37.116483449749,-122.323154398967,-2,5,0.138761,60.09871,2.18052606272248,-0.142129258373516,0.165027448575696
352967,2021-04-09 11:37:35,-1.16661194224918,37.1164833269084,-122.323154282534,-2,5,0.138761,65.20008,2.16674236557287,-0.140610653904164,0.163374243856847
352968,2021-04-09 11:37:36,-1.11269441320874,37.1164832040677,-122.323154166102,-2,5,0.138761,67.97603,2.18601283899768,-0.144322259384366,0.161210820861619
352969,2021-04-09 11:37:37,-1.12615846202759,37.1164830812271,-122.323154049669,-2,5,0.138761,64.05194,2.17584940883499,-0.143951005981218,0.161820016142651
352970,2021-04-09 11:37:38,-1.12687127868703,37.1164829583864,-122.323153933236,-2,5,0.138761,57.8494,2.19249165329991,-0.141954223073526,0.161275748007858
352971,2021-04-09 11:37:39,-1.15896036245975,37.1164828355458,-122.323153816804,-2,5,0.138761,65.95011,2.19120665017063,-0.141752299629748,0.162674384637929
352972,2021-04-09 11:37:40,-1.09188167098098,37.1164827127051,-122.323153700371,-2,5,0.138761,60.49394,2.17399321160984,-0.140132510564008,0.162094493867328
352973,2021-04-09 11:37:41,-1.15522454290364,37.1164825898644,-122.323153583938,-2,5,0.138761,48.70348,2.17449187261863,-0.139041680017824,0.158463521000097
352974,2021-04-09 11:37:42,-1.15776590959928,37.1164824670238,-122.323153467506,-2,5,0.138761,49.52827,2.16065815743032,-0.142583277916948,0.161248529672637
352975,2021-04-09 11:37:43,-1.158954341628,37.1164823441831,-122.323153351073,-2,5,0.138761,54.98529,2.18374303063491,-0.144287655268536,0.164611855671393
352976,2021-04-09 11:37:44,-1.14528445146218,37.1164822213425,-122.32315323464,-2,5,0.138761,67.37281,2.13383104438519,-0.135745272701012,0.167889125418847
352977,2021-04-09 11:37:45,-1.1478817879807,37.1164820985018,-122.323153118208,-2,5,0.138761,67.95102,2.17130186330132,-0.144003929520689,0.157200813567753
352978,2021-04-09 11:37:46,-1.17083513117207,37.1164819756611,-122.323153001775,-2,5,0.138761,68.98922,2.16415459975633,-0.141251403572738,0.162114463221796
352979,2021-04-09 11:37:47,-1.1765350525122,37.1164818528205,-122.323152885342,-2,5,0.138761,69.97658,2.14694055204477,-0.14024981307278,0.162864679968368
352980,2021-04-09 11:37:48,-1.16777406174318,37.1164817299798,-122.32315276891,-2,5,0.138761,71.76486,2.16205872960554,-0.139409263186167,0.157516299684406
352981,2021-04-09 11:37:49,-1.14081629547996,37.1164816071391,-122.323152652477,-2,5,0.138761,67.28601,2.16682066956929,-0.142053098344236,0.16500896078928
352982,2021-04-09 11:37:50,-1.13831266322007,37.1164814842985,-122.323152536044,-2,5,0.138761,48.88052,2.16548911907251,-0.141843338455194,0.162299635759887
352983,2021-04-09 11:37:51,-1.12560526742297,37.1164813614578,-122.323152419612,-2,5,0.138761,53.0431,2.16612563257647,-0.138022185921711,0.163706154556435
352984,2021-04-09 11:37:52,-1.11943520550571,37.1164812386171,-122.323152303179,-2,5,0.138761,61.53232,2.18168178883208,-0.141310966281341,0.163245062154112
352985,2021-04-09 11:37:53,-1.07984901693106,37.1164811157765,-122.323152186746,-2,5,0.138761,57.73436,2.16196614894223,-0.141408611169623,0.160364794563013
352986,2021-04-09 11:37:54,-1.16808970061282,37.1164809929359,-122.323152070313,-2,5,0.138761,52.34434,2.16425674397902,-0.143830854015617,0.1613478090592
352987,2021-04-09 11:37:55,-1.11367789505204,37.1164808700952,-122.323151953881,-2,5,0.138761,61.55813,2.18375627797115,-0.138659716906481,0.164546992184646
352988,2021-04-09 11:37:56,-1.13800536441544,37.1164807472545,-122.323151837448,-2,5,0.138761,68.59144,2.18339716782253,-0.138508872073394,0.159870157979389
352989,2021-04-09 11:37:57,-1.14892364919033,37.1164806244139,-122.323151721015,-2,5,0.138761,68.54034,2.19617928356864,-0.141848171013175,0.159977273208581
352990,2021-04-09 11:37:58,-1.15205138039481,37.1164805015732,-122.323151604583,-2,5,0.138761,61.87158,2.20055739525225,-0.14366685037851,0.162017717933797
352991,2021-04-09 11:37:59,-1.14657013197458,37.1164803787325,-122.32315148815,-2,5,0.138761,55.21264,2.17497774487812,-0.138473671433297,0.158939137029909
352992,2021-04-09 11:38:00,-1.12890096421624,37.1164802558919,-122.323151371717,-2,5,0.138761,67.03634,2.19377153360312,-0.141891511454625,0.161585950169225
352993,2021-04-09 11:38:01,-1.16749746719952,37.1164801330512,-122.323151255285,-2,5,0.138761,63.25687,2.18115190282232,-0.140992215922471,0.16332361755713
352994,2021-04-09 11:38:02,-1.11879850098233,37.1164800102105,-122.323151138852,-2,5,0.138761,48.46934,2.19281217105364,-0.140734111619835,0.163367501219708
352995,2021-04-09 11:38:03,-1.08943061264659,37.1164798873699,-122.323151022419,-2,5,0.138761,52.15421,2.17576415726871,-0.140720620420503,0.163849138927361
352996,2021-04-09 11:38:04,-1.11122907235989,37.1164797645292,-122.323150905987,-2,5,0.138761,60.67987,2.18569762803913,-0.139680865589676,0.167592723242369
352997,2021-04-09 11:38:05,-1.16351766291485,37.1164796416886,-122.323150789554,-2,5,0.138761,64.81781,2.19415493363097,-0.142680251596155,0.157512284099995
352998,2021-04-09 11:38:06,-1.13929261850439,37.1164795188479,-122.323150673121,-2,5,0.138761,67.43401,2.1959861228549,-0.141966801401658,0.160698455730533
352999,2021-04-09 11:38:07,-1.09947974097312,37.1164793960072,-122.323150556689,-2,5,0.138761,65.83342,2.17240438895783,-0.139893664413398,0.163593265021905
353000,2021-04-09 11:38:08,-1.12234184683341,37.1164792731666,-122.323150440256,-2,5,0.138761,60.26197,2.18241215607005,-0.144316848346454,0.164843028276382
